{
"type": "FeatureCollection",
"name": "Cercanias",
"crs": { "type": "name", "properties": { "name": "urn:ogc:def:crs:OGC:1.3:CRS84" } },
"features": [
{ "type": "Feature", "properties": { "Name": "C-1 AEROPUERTO T4", "description": null }, "geometry": { "type": "Point", "coordinates": [ -3.593336761776833, 40.491767624165149 ] } },
{ "type": "Feature", "properties": { "Name": "C-1 ATOCHA", "description": null }, "geometry": { "type": "Point", "coordinates": [ -3.689309286884385, 40.406586512280242 ] } },
{ "type": "Feature", "properties": { "Name": "C-1 CHAMARTIN", "description": null }, "geometry": { "type": "Point", "coordinates": [ -3.682476048547155, 40.472095554139912 ] } },
{ "type": "Feature", "properties": { "Name": "C-1 DELICIAS", "description": null }, "geometry": { "type": "Point", "coordinates": [ -3.692769298573432, 40.400367595318635 ] } },
{ "type": "Feature", "properties": { "Name": "C-1 FUENTE DE LA MORA", "description": null }, "geometry": { "type": "Point", "coordinates": [ -3.662829237134829, 40.484741355889597 ] } },
{ "type": "Feature", "properties": { "Name": "C-1 MENDEZ ALVARO", "description": null }, "geometry": { "type": "Point", "coordinates": [ -3.678083333693072, 40.395373531545985 ] } },
{ "type": "Feature", "properties": { "Name": "C-1 NUEVOS MINISTERIOS", "description": null }, "geometry": { "type": "Point", "coordinates": [ -3.692347707353604, 40.446613500444208 ] } },
{ "type": "Feature", "properties": { "Name": "C-1 PIRAMIDES", "description": null }, "geometry": { "type": "Point", "coordinates": [ -3.711340844052455, 40.402588181416029 ] } },
{ "type": "Feature", "properties": { "Name": "C-1 PRINCIPE PIO", "description": null }, "geometry": { "type": "Point", "coordinates": [ -3.720270115764194, 40.421064507994544 ] } },
{ "type": "Feature", "properties": { "Name": "C-1 RECOLETOS", "description": null }, "geometry": { "type": "Point", "coordinates": [ -3.690860163279938, 40.42340615992542 ] } },
{ "type": "Feature", "properties": { "Name": "C-1 VALDEBEBAS", "description": null }, "geometry": { "type": "Point", "coordinates": [ -3.616437309025623, 40.482295417663089 ] } },
{ "type": "Feature", "properties": { "Name": "C-10 ARAVACA", "description": null }, "geometry": { "type": "Point", "coordinates": [ -3.785867623306033, 40.448321845451602 ] } },
{ "type": "Feature", "properties": { "Name": "C-10 ATOCHA", "description": null }, "geometry": { "type": "Point", "coordinates": [ -3.689309286884385, 40.406586512280242 ] } },
{ "type": "Feature", "properties": { "Name": "C-10 BARRIAL-C.COM.POZUELO, EL", "description": null }, "geometry": { "type": "Point", "coordinates": [ -3.807746250457843, 40.465369112205963 ] } },
{ "type": "Feature", "properties": { "Name": "C-10 CHAMARTIN", "description": null }, "geometry": { "type": "Point", "coordinates": [ -3.682476048547155, 40.472095554139912 ] } },
{ "type": "Feature", "properties": { "Name": "C-10 DELICIAS", "description": null }, "geometry": { "type": "Point", "coordinates": [ -3.692769298573432, 40.400367595318635 ] } },
{ "type": "Feature", "properties": { "Name": "C-10 FUENTE DE LA MORA", "description": null }, "geometry": { "type": "Point", "coordinates": [ -3.662829237134829, 40.484741355889597 ] } },
{ "type": "Feature", "properties": { "Name": "C-10 GALAPAGAR-LA NAVATA", "description": null }, "geometry": { "type": "Point", "coordinates": [ -3.981864504873055, 40.600107520110988 ] } },
{ "type": "Feature", "properties": { "Name": "C-10 MAJADAHONDA", "description": null }, "geometry": { "type": "Point", "coordinates": [ -3.845355446469295, 40.474271237566938 ] } },
{ "type": "Feature", "properties": { "Name": "C-10 MATAS, LAS", "description": null }, "geometry": { "type": "Point", "coordinates": [ -3.89684104191362, 40.552512233963505 ] } },
{ "type": "Feature", "properties": { "Name": "C-10 MENDEZ ALVARO", "description": null }, "geometry": { "type": "Point", "coordinates": [ -3.678083333693072, 40.395373531545985 ] } },
{ "type": "Feature", "properties": { "Name": "C-10 NUEVOS MINISTERIOS", "description": null }, "geometry": { "type": "Point", "coordinates": [ -3.692347707353604, 40.446613500444208 ] } },
{ "type": "Feature", "properties": { "Name": "C-10 PINAR DE LAS ROZAS", "description": null }, "geometry": { "type": "Point", "coordinates": [ -3.88216547527542, 40.52229261381278 ] } },
{ "type": "Feature", "properties": { "Name": "C-10 PIRAMIDES", "description": null }, "geometry": { "type": "Point", "coordinates": [ -3.711340844052455, 40.402588181416029 ] } },
{ "type": "Feature", "properties": { "Name": "C-10 POZUELO", "description": null }, "geometry": { "type": "Point", "coordinates": [ -3.800123874652977, 40.447260086569074 ] } },
{ "type": "Feature", "properties": { "Name": "C-10 PRINCIPE PIO", "description": null }, "geometry": { "type": "Point", "coordinates": [ -3.720270115764194, 40.421064507994544 ] } },
{ "type": "Feature", "properties": { "Name": "C-10 RECOLETOS", "description": null }, "geometry": { "type": "Point", "coordinates": [ -3.690860163279938, 40.42340615992542 ] } },
{ "type": "Feature", "properties": { "Name": "C-10 ROZAS, LAS", "description": null }, "geometry": { "type": "Point", "coordinates": [ -3.868132904609656, 40.494228236957326 ] } },
{ "type": "Feature", "properties": { "Name": "C-10 TORRELODONES", "description": null }, "geometry": { "type": "Point", "coordinates": [ -3.956549700643582, 40.574501047554328 ] } },
{ "type": "Feature", "properties": { "Name": "C-10 VILLALBA", "description": null }, "geometry": { "type": "Point", "coordinates": [ -4.00810707481334, 40.626357805225439 ] } },
{ "type": "Feature", "properties": { "Name": "C-2 ALCALÁ DE HENARES", "description": null }, "geometry": { "type": "Point", "coordinates": [ -3.366345988497244, 40.489025382703794 ] } },
{ "type": "Feature", "properties": { "Name": "C-2 ALCALÁ DE HENARES UNIVERSIDAD", "description": null }, "geometry": { "type": "Point", "coordinates": [ -3.335417591794884, 40.505335483779135 ] } },
{ "type": "Feature", "properties": { "Name": "C-2 ASAMBLEA DE MADRID-ENTREVIAS", "description": null }, "geometry": { "type": "Point", "coordinates": [ -3.668014615023188, 40.381666238433745 ] } },
{ "type": "Feature", "properties": { "Name": "C-2 ATOCHA", "description": null }, "geometry": { "type": "Point", "coordinates": [ -3.689309286884385, 40.406586512280242 ] } },
{ "type": "Feature", "properties": { "Name": "C-2 AZUQUECA", "description": null }, "geometry": { "type": "Point", "coordinates": [ -3.265471041498204, 40.561030509406315 ] } },
{ "type": "Feature", "properties": { "Name": "C-2 AZUQUECA", "description": null }, "geometry": { "type": "Point", "coordinates": [ -3.265471041498204, 40.561030509406315 ] } },
{ "type": "Feature", "properties": { "Name": "C-2 CHAMARTIN", "description": null }, "geometry": { "type": "Point", "coordinates": [ -3.682476048547155, 40.472095554139912 ] } },
{ "type": "Feature", "properties": { "Name": "C-2 COSLADA", "description": null }, "geometry": { "type": "Point", "coordinates": [ -3.561146077392619, 40.423730134161147 ] } },
{ "type": "Feature", "properties": { "Name": "C-2 GARENA, LA", "description": null }, "geometry": { "type": "Point", "coordinates": [ -3.393175549897824, 40.480432717334708 ] } },
{ "type": "Feature", "properties": { "Name": "C-2 GUADALAJARA", "description": null }, "geometry": { "type": "Point", "coordinates": [ -3.182395924654478, 40.644082003713358 ] } },
{ "type": "Feature", "properties": { "Name": "C-2 MECO", "description": null }, "geometry": { "type": "Point", "coordinates": [ -3.29866449650398, 40.534616370750307 ] } },
{ "type": "Feature", "properties": { "Name": "C-2 NUEVOS MINISTERIOS", "description": null }, "geometry": { "type": "Point", "coordinates": [ -3.692347707353604, 40.446613500444208 ] } },
{ "type": "Feature", "properties": { "Name": "C-2 POZO, EL", "description": null }, "geometry": { "type": "Point", "coordinates": [ -3.65623667194838, 40.375895769561872 ] } },
{ "type": "Feature", "properties": { "Name": "C-2 RECOLETOS", "description": null }, "geometry": { "type": "Point", "coordinates": [ -3.690860163279938, 40.42340615992542 ] } },
{ "type": "Feature", "properties": { "Name": "C-2 SAN FERNANDO", "description": null }, "geometry": { "type": "Point", "coordinates": [ -3.533852770176998, 40.442661299211494 ] } },
{ "type": "Feature", "properties": { "Name": "C-2 SANTA EUGENIA", "description": null }, "geometry": { "type": "Point", "coordinates": [ -3.60906393384262, 40.386982804664136 ] } },
{ "type": "Feature", "properties": { "Name": "C-2 SOTO DEL HENARES", "description": null }, "geometry": { "type": "Point", "coordinates": [ -3.44134302445978, 40.463529069628066 ] } },
{ "type": "Feature", "properties": { "Name": "C-2 TORREJON DE ARDOZ", "description": null }, "geometry": { "type": "Point", "coordinates": [ -3.479826252209788, 40.454600927102526 ] } },
{ "type": "Feature", "properties": { "Name": "C-2 VALLECAS", "description": null }, "geometry": { "type": "Point", "coordinates": [ -3.624560007555698, 40.382206398678932 ] } },
{ "type": "Feature", "properties": { "Name": "C-2 VICALVARO", "description": null }, "geometry": { "type": "Point", "coordinates": [ -3.595935723437658, 40.401312624890139 ] } },
{ "type": "Feature", "properties": { "Name": "C-3 ARANJUEZ", "description": null }, "geometry": { "type": "Point", "coordinates": [ -3.618308710881735, 40.034828943473428 ] } },
{ "type": "Feature", "properties": { "Name": "C-3 ATOCHA", "description": null }, "geometry": { "type": "Point", "coordinates": [ -3.689309286884385, 40.406586512280242 ] } },
{ "type": "Feature", "properties": { "Name": "C-3 CASAR, EL", "description": null }, "geometry": { "type": "Point", "coordinates": [ -3.709845112818798, 40.318461135545775 ] } },
{ "type": "Feature", "properties": { "Name": "C-3 CHAMARTIN", "description": null }, "geometry": { "type": "Point", "coordinates": [ -3.682476048547155, 40.472095554139912 ] } },
{ "type": "Feature", "properties": { "Name": "C-3 CIEMPOZUELOS", "description": null }, "geometry": { "type": "Point", "coordinates": [ -3.610028566722413, 40.159060655560189 ] } },
{ "type": "Feature", "properties": { "Name": "C-3 ESCORIAL, EL", "description": null }, "geometry": { "type": "Point", "coordinates": [ -4.132340864693605, 40.585262374313508 ] } },
{ "type": "Feature", "properties": { "Name": "C-3 GALAPAGAR-LA NAVATA", "description": null }, "geometry": { "type": "Point", "coordinates": [ -3.981864504873055, 40.600107520110988 ] } },
{ "type": "Feature", "properties": { "Name": "C-3 GETAFE INDUSTRIAL", "description": null }, "geometry": { "type": "Point", "coordinates": [ -3.707696884160276, 40.30547401855334 ] } },
{ "type": "Feature", "properties": { "Name": "C-3 MATAS, LAS", "description": null }, "geometry": { "type": "Point", "coordinates": [ -3.89684104191362, 40.552512233963505 ] } },
{ "type": "Feature", "properties": { "Name": "C-3 NUEVOS MINISTERIOS", "description": null }, "geometry": { "type": "Point", "coordinates": [ -3.692347707353604, 40.446613500444208 ] } },
{ "type": "Feature", "properties": { "Name": "C-3 PINAR DE LAS ROZAS", "description": null }, "geometry": { "type": "Point", "coordinates": [ -3.88216547527542, 40.52229261381278 ] } },
{ "type": "Feature", "properties": { "Name": "C-3 PINTO", "description": null }, "geometry": { "type": "Point", "coordinates": [ -3.703740009363518, 40.242784683534701 ] } },
{ "type": "Feature", "properties": { "Name": "C-3 PITIS", "description": null }, "geometry": { "type": "Point", "coordinates": [ -3.725852307389196, 40.495101363520078 ] } },
{ "type": "Feature", "properties": { "Name": "C-3 RAMON Y CAJAL", "description": null }, "geometry": { "type": "Point", "coordinates": [ -3.694745799781866, 40.488238559271267 ] } },
{ "type": "Feature", "properties": { "Name": "C-3 SAN CRISTOBAL DE LOS ANGELES", "description": null }, "geometry": { "type": "Point", "coordinates": [ -3.683851282522325, 40.342356914115214 ] } },
{ "type": "Feature", "properties": { "Name": "C-3 SAN CRISTOBAL INDUSTRIAL", "description": null }, "geometry": { "type": "Point", "coordinates": [ -3.698720010046481, 40.33190750723098 ] } },
{ "type": "Feature", "properties": { "Name": "C-3 SAN YAGO", "description": null }, "geometry": { "type": "Point", "coordinates": [ -4.031115097086756, 40.617857732793667 ] } },
{ "type": "Feature", "properties": { "Name": "C-3 SOL", "description": null }, "geometry": { "type": "Point", "coordinates": [ -3.703098564898805, 40.416836863460233 ] } },
{ "type": "Feature", "properties": { "Name": "C-3 TORRELODONES", "description": null }, "geometry": { "type": "Point", "coordinates": [ -3.956549700643582, 40.574501047554328 ] } },
{ "type": "Feature", "properties": { "Name": "C-3 VALDEMORO", "description": null }, "geometry": { "type": "Point", "coordinates": [ -3.66481492631788, 40.196040042412193 ] } },
{ "type": "Feature", "properties": { "Name": "C-3 VILLALBA", "description": null }, "geometry": { "type": "Point", "coordinates": [ -4.00810707481334, 40.626357805225439 ] } },
{ "type": "Feature", "properties": { "Name": "C-3 VILLAVERDE BAJO", "description": null }, "geometry": { "type": "Point", "coordinates": [ -3.683990431594142, 40.352635537500554 ] } },
{ "type": "Feature", "properties": { "Name": "C-3 ZORRERAS, LAS", "description": null }, "geometry": { "type": "Point", "coordinates": [ -4.046068266322878, 40.609408304393597 ] } },
{ "type": "Feature", "properties": { "Name": "C-4A ALCOBENDAS-S.S. DE LOS REYES", "description": null }, "geometry": { "type": "Point", "coordinates": [ -3.635189512222943, 40.546562556258245 ] } },
{ "type": "Feature", "properties": { "Name": "C-4A ATOCHA", "description": null }, "geometry": { "type": "Point", "coordinates": [ -3.689309286884385, 40.406586512280242 ] } },
{ "type": "Feature", "properties": { "Name": "C-4A CANTOBLANCO UNIVERSIDAD", "description": null }, "geometry": { "type": "Point", "coordinates": [ -3.700350083538947, 40.543780580469516 ] } },
{ "type": "Feature", "properties": { "Name": "C-4A CHAMARTIN", "description": null }, "geometry": { "type": "Point", "coordinates": [ -3.682476048547155, 40.472095554139912 ] } },
{ "type": "Feature", "properties": { "Name": "C-4A FUENCARRAL", "description": null }, "geometry": { "type": "Point", "coordinates": [ -3.682349666995121, 40.501555537601703 ] } },
{ "type": "Feature", "properties": { "Name": "C-4A GETAFE CENTRO", "description": null }, "geometry": { "type": "Point", "coordinates": [ -3.733941532876599, 40.310094381024776 ] } },
{ "type": "Feature", "properties": { "Name": "C-4A GETAFE SECTOR 3", "description": null }, "geometry": { "type": "Point", "coordinates": [ -3.737340373196777, 40.2882434458623 ] } },
{ "type": "Feature", "properties": { "Name": "C-4A MARGARITAS-UNIVERSIDAD, LAS", "description": null }, "geometry": { "type": "Point", "coordinates": [ -3.727384201033014, 40.323036955698726 ] } },
{ "type": "Feature", "properties": { "Name": "C-4A NUEVOS MINISTERIOS", "description": null }, "geometry": { "type": "Point", "coordinates": [ -3.692347707353604, 40.446613500444208 ] } },
{ "type": "Feature", "properties": { "Name": "C-4A PARLA", "description": null }, "geometry": { "type": "Point", "coordinates": [ -3.769366602325555, 40.240763352099847 ] } },
{ "type": "Feature", "properties": { "Name": "C-4A SOL", "description": null }, "geometry": { "type": "Point", "coordinates": [ -3.703098564898805, 40.416836863460233 ] } },
{ "type": "Feature", "properties": { "Name": "C-4A UNIVERSIDAD P. COMILLAS", "description": null }, "geometry": { "type": "Point", "coordinates": [ -3.683342961427948, 40.554053406984451 ] } },
{ "type": "Feature", "properties": { "Name": "C-4A UNIVERSIDAD P. COMILLAS", "description": null }, "geometry": { "type": "Point", "coordinates": [ -3.683342961427948, 40.554053406984451 ] } },
{ "type": "Feature", "properties": { "Name": "C-4A VALDELASFUENTES", "description": null }, "geometry": { "type": "Point", "coordinates": [ -3.654341568629256, 40.547437640525722 ] } },
{ "type": "Feature", "properties": { "Name": "C-4A VILLAVERDE ALTO", "description": null }, "geometry": { "type": "Point", "coordinates": [ -3.711932128279198, 40.341223501204823 ] } },
{ "type": "Feature", "properties": { "Name": "C-4A VILLAVERDE BAJO", "description": null }, "geometry": { "type": "Point", "coordinates": [ -3.683990431594142, 40.352635537500554 ] } },
{ "type": "Feature", "properties": { "Name": "C-4B ATOCHA", "description": null }, "geometry": { "type": "Point", "coordinates": [ -3.689309286884385, 40.406586512280242 ] } },
{ "type": "Feature", "properties": { "Name": "C-4B CANTOBLANCO UNIVERSIDAD", "description": null }, "geometry": { "type": "Point", "coordinates": [ -3.700350083538947, 40.543780580469516 ] } },
{ "type": "Feature", "properties": { "Name": "C-4B CHAMARTIN", "description": null }, "geometry": { "type": "Point", "coordinates": [ -3.682476048547155, 40.472095554139912 ] } },
{ "type": "Feature", "properties": { "Name": "C-4B COLMENAR VIEJO", "description": null }, "geometry": { "type": "Point", "coordinates": [ -3.77573939157319, 40.644962698202761 ] } },
{ "type": "Feature", "properties": { "Name": "C-4B FUENCARRAL", "description": null }, "geometry": { "type": "Point", "coordinates": [ -3.682349666995121, 40.501555537601703 ] } },
{ "type": "Feature", "properties": { "Name": "C-4B GETAFE CENTRO", "description": null }, "geometry": { "type": "Point", "coordinates": [ -3.733941532876599, 40.310094381024776 ] } },
{ "type": "Feature", "properties": { "Name": "C-4B GETAFE SECTOR 3", "description": null }, "geometry": { "type": "Point", "coordinates": [ -3.737340373196777, 40.2882434458623 ] } },
{ "type": "Feature", "properties": { "Name": "C-4B GOLOSO, EL", "description": null }, "geometry": { "type": "Point", "coordinates": [ -3.71407594160747, 40.558570145043277 ] } },
{ "type": "Feature", "properties": { "Name": "C-4B MARGARITAS-UNIVERSIDAD, LAS", "description": null }, "geometry": { "type": "Point", "coordinates": [ -3.727384201033014, 40.323036955698726 ] } },
{ "type": "Feature", "properties": { "Name": "C-4B NUEVOS MINISTERIOS", "description": null }, "geometry": { "type": "Point", "coordinates": [ -3.692347707353604, 40.446613500444208 ] } },
{ "type": "Feature", "properties": { "Name": "C-4B PARLA", "description": null }, "geometry": { "type": "Point", "coordinates": [ -3.769366602325555, 40.240763352099847 ] } },
{ "type": "Feature", "properties": { "Name": "C-4B SOL", "description": null }, "geometry": { "type": "Point", "coordinates": [ -3.703098564898805, 40.416836863460233 ] } },
{ "type": "Feature", "properties": { "Name": "C-4B TRES CANTOS", "description": null }, "geometry": { "type": "Point", "coordinates": [ -3.715658181872107, 40.598433257758494 ] } },
{ "type": "Feature", "properties": { "Name": "C-4B VILLAVERDE ALTO", "description": null }, "geometry": { "type": "Point", "coordinates": [ -3.711932128279198, 40.341223501204823 ] } },
{ "type": "Feature", "properties": { "Name": "C-4B VILLAVERDE BAJO", "description": null }, "geometry": { "type": "Point", "coordinates": [ -3.683990431594142, 40.352635537500554 ] } },
{ "type": "Feature", "properties": { "Name": "C-5 AGUILAS, LAS", "description": null }, "geometry": { "type": "Point", "coordinates": [ -3.780280303693509, 40.38117943069571 ] } },
{ "type": "Feature", "properties": { "Name": "C-5 ALCORCON", "description": null }, "geometry": { "type": "Point", "coordinates": [ -3.831732961710275, 40.350072818094773 ] } },
{ "type": "Feature", "properties": { "Name": "C-5 ALUCHE", "description": null }, "geometry": { "type": "Point", "coordinates": [ -3.760750749791809, 40.385624906494115 ] } },
{ "type": "Feature", "properties": { "Name": "C-5 ATOCHA", "description": null }, "geometry": { "type": "Point", "coordinates": [ -3.689309286884385, 40.406586512280242 ] } },
{ "type": "Feature", "properties": { "Name": "C-5 CUATRO VIENTOS", "description": null }, "geometry": { "type": "Point", "coordinates": [ -3.791443025609041, 40.377698141275182 ] } },
{ "type": "Feature", "properties": { "Name": "C-5 DOCE DE OCTUBRE", "description": null }, "geometry": { "type": "Point", "coordinates": [ -3.698616796434892, 40.378953851961377 ] } },
{ "type": "Feature", "properties": { "Name": "C-5 EMBAJADORES", "description": null }, "geometry": { "type": "Point", "coordinates": [ -3.702634855778819, 40.405118906181002 ] } },
{ "type": "Feature", "properties": { "Name": "C-5 FANJUL", "description": null }, "geometry": { "type": "Point", "coordinates": [ -3.768574728023283, 40.383645227627838 ] } },
{ "type": "Feature", "properties": { "Name": "C-5 FUENLABRADA", "description": null }, "geometry": { "type": "Point", "coordinates": [ -3.798862318605597, 40.282672734268118 ] } },
{ "type": "Feature", "properties": { "Name": "C-5 HUMANES", "description": null }, "geometry": { "type": "Point", "coordinates": [ -3.828470765099149, 40.255644047402015 ] } },
{ "type": "Feature", "properties": { "Name": "C-5 LAGUNA", "description": null }, "geometry": { "type": "Point", "coordinates": [ -3.744229067683025, 40.399173948035425 ] } },
{ "type": "Feature", "properties": { "Name": "C-5 LEGANES", "description": null }, "geometry": { "type": "Point", "coordinates": [ -3.771485710166074, 40.328976562989126 ] } },
{ "type": "Feature", "properties": { "Name": "C-5 MENDEZ ALVARO", "description": null }, "geometry": { "type": "Point", "coordinates": [ -3.678083333693072, 40.395373531545985 ] } },
{ "type": "Feature", "properties": { "Name": "C-5 MOSTOLES", "description": null }, "geometry": { "type": "Point", "coordinates": [ -3.863498351455414, 40.328497447284761 ] } },
{ "type": "Feature", "properties": { "Name": "C-5 MOSTOLES EL SOTO", "description": null }, "geometry": { "type": "Point", "coordinates": [ -3.882340339969179, 40.330886814439431 ] } },
{ "type": "Feature", "properties": { "Name": "C-5 ORCASITAS", "description": null }, "geometry": { "type": "Point", "coordinates": [ -3.704416796700134, 40.366900514655114 ] } },
{ "type": "Feature", "properties": { "Name": "C-5 PARQUE POLVORANCA", "description": null }, "geometry": { "type": "Point", "coordinates": [ -3.783349399077995, 40.312500150598957 ] } },
{ "type": "Feature", "properties": { "Name": "C-5 PUENTE ALCOCER", "description": null }, "geometry": { "type": "Point", "coordinates": [ -3.705162346126635, 40.350283132442513 ] } },
{ "type": "Feature", "properties": { "Name": "C-5 RETAMAS, LAS", "description": null }, "geometry": { "type": "Point", "coordinates": [ -3.842429042631016, 40.341887210881154 ] } },
{ "type": "Feature", "properties": { "Name": "C-5 SAN JOSE DE VALDERAS", "description": null }, "geometry": { "type": "Point", "coordinates": [ -3.815890577458931, 40.356528069301739 ] } },
{ "type": "Feature", "properties": { "Name": "C-5 SERNA, LA", "description": null }, "geometry": { "type": "Point", "coordinates": [ -3.792485788626612, 40.296716894279768 ] } },
{ "type": "Feature", "properties": { "Name": "C-5 VILLAVERDE ALTO", "description": null }, "geometry": { "type": "Point", "coordinates": [ -3.711932128279198, 40.341223501204823 ] } },
{ "type": "Feature", "properties": { "Name": "C-5 ZARZAQUEMADA", "description": null }, "geometry": { "type": "Point", "coordinates": [ -3.748309003520136, 40.340849729616316 ] } },
{ "type": "Feature", "properties": { "Name": "C-7A ALCALÁ DE HENARES", "description": null }, "geometry": { "type": "Point", "coordinates": [ -3.366345988497244, 40.489025382703794 ] } },
{ "type": "Feature", "properties": { "Name": "C-7A ARAVACA", "description": null }, "geometry": { "type": "Point", "coordinates": [ -3.785867623306033, 40.448321845451602 ] } },
{ "type": "Feature", "properties": { "Name": "C-7A ASAMBLEA DE MADRID-ENTREVIAS", "description": null }, "geometry": { "type": "Point", "coordinates": [ -3.668014615023188, 40.381666238433745 ] } },
{ "type": "Feature", "properties": { "Name": "C-7A ATOCHA", "description": null }, "geometry": { "type": "Point", "coordinates": [ -3.689309286884385, 40.406586512280242 ] } },
{ "type": "Feature", "properties": { "Name": "C-7A BARRIAL-C.COM.POZUELO, EL", "description": null }, "geometry": { "type": "Point", "coordinates": [ -3.807746250457843, 40.465369112205963 ] } },
{ "type": "Feature", "properties": { "Name": "C-7A CHAMARTIN", "description": null }, "geometry": { "type": "Point", "coordinates": [ -3.682476048547155, 40.472095554139912 ] } },
{ "type": "Feature", "properties": { "Name": "C-7A COSLADA", "description": null }, "geometry": { "type": "Point", "coordinates": [ -3.561146077392619, 40.423730134161147 ] } },
{ "type": "Feature", "properties": { "Name": "C-7A GARENA, LA", "description": null }, "geometry": { "type": "Point", "coordinates": [ -3.393175549897824, 40.480432717334708 ] } },
{ "type": "Feature", "properties": { "Name": "C-7A MAJADAHONDA", "description": null }, "geometry": { "type": "Point", "coordinates": [ -3.845355446469295, 40.474271237566938 ] } },
{ "type": "Feature", "properties": { "Name": "C-7A NUEVOS MINISTERIOS", "description": null }, "geometry": { "type": "Point", "coordinates": [ -3.692347707353604, 40.446613500444208 ] } },
{ "type": "Feature", "properties": { "Name": "C-7A PITIS", "description": null }, "geometry": { "type": "Point", "coordinates": [ -3.725852307389196, 40.495101363520078 ] } },
{ "type": "Feature", "properties": { "Name": "C-7A POZO, EL", "description": null }, "geometry": { "type": "Point", "coordinates": [ -3.65623667194838, 40.375895769561872 ] } },
{ "type": "Feature", "properties": { "Name": "C-7A POZUELO", "description": null }, "geometry": { "type": "Point", "coordinates": [ -3.800123874652977, 40.447260086569074 ] } },
{ "type": "Feature", "properties": { "Name": "C-7A PRINCIPE PIO", "description": null }, "geometry": { "type": "Point", "coordinates": [ -3.720270115764194, 40.421064507994544 ] } },
{ "type": "Feature", "properties": { "Name": "C-7A RAMON Y CAJAL", "description": null }, "geometry": { "type": "Point", "coordinates": [ -3.694745799781866, 40.488238559271267 ] } },
{ "type": "Feature", "properties": { "Name": "C-7A RECOLETOS", "description": null }, "geometry": { "type": "Point", "coordinates": [ -3.690860163279938, 40.42340615992542 ] } },
{ "type": "Feature", "properties": { "Name": "C-7A ROZAS, LAS", "description": null }, "geometry": { "type": "Point", "coordinates": [ -3.868132904609656, 40.494228236957326 ] } },
{ "type": "Feature", "properties": { "Name": "C-7A SAN FERNANDO", "description": null }, "geometry": { "type": "Point", "coordinates": [ -3.533852770176998, 40.442661299211494 ] } },
{ "type": "Feature", "properties": { "Name": "C-7A SANTA EUGENIA", "description": null }, "geometry": { "type": "Point", "coordinates": [ -3.60906393384262, 40.386982804664136 ] } },
{ "type": "Feature", "properties": { "Name": "C-7A SOTO DEL HENARES", "description": null }, "geometry": { "type": "Point", "coordinates": [ -3.44134302445978, 40.463529069628066 ] } },
{ "type": "Feature", "properties": { "Name": "C-7A TORREJON DE ARDOZ", "description": null }, "geometry": { "type": "Point", "coordinates": [ -3.479826252209788, 40.454600927102526 ] } },
{ "type": "Feature", "properties": { "Name": "C-7A VALLECAS", "description": null }, "geometry": { "type": "Point", "coordinates": [ -3.624560007555698, 40.382206398678932 ] } },
{ "type": "Feature", "properties": { "Name": "C-7A VICALVARO", "description": null }, "geometry": { "type": "Point", "coordinates": [ -3.595935723437658, 40.401312624890139 ] } },
{ "type": "Feature", "properties": { "Name": "C-7B ATOCHA", "description": null }, "geometry": { "type": "Point", "coordinates": [ -3.689309286884385, 40.406586512280242 ] } },
{ "type": "Feature", "properties": { "Name": "C-7B ATOCHA", "description": null }, "geometry": { "type": "Point", "coordinates": [ -3.689309286884385, 40.406586512280242 ] } },
{ "type": "Feature", "properties": { "Name": "C-7B CHAMARTIN", "description": null }, "geometry": { "type": "Point", "coordinates": [ -3.682476048547155, 40.472095554139912 ] } },
{ "type": "Feature", "properties": { "Name": "C-7B DELICIAS", "description": null }, "geometry": { "type": "Point", "coordinates": [ -3.692769298573432, 40.400367595318635 ] } },
{ "type": "Feature", "properties": { "Name": "C-7B FUENTE DE LA MORA", "description": null }, "geometry": { "type": "Point", "coordinates": [ -3.662829237134829, 40.484741355889597 ] } },
{ "type": "Feature", "properties": { "Name": "C-7B MENDEZ ALVARO", "description": null }, "geometry": { "type": "Point", "coordinates": [ -3.678083333693072, 40.395373531545985 ] } },
{ "type": "Feature", "properties": { "Name": "C-7B NUEVOS MINISTERIOS", "description": null }, "geometry": { "type": "Point", "coordinates": [ -3.692347707353604, 40.446613500444208 ] } },
{ "type": "Feature", "properties": { "Name": "C-7B PIRAMIDES", "description": null }, "geometry": { "type": "Point", "coordinates": [ -3.711340844052455, 40.402588181416029 ] } },
{ "type": "Feature", "properties": { "Name": "C-7B PRINCIPE PIO", "description": null }, "geometry": { "type": "Point", "coordinates": [ -3.720270115764194, 40.421064507994544 ] } },
{ "type": "Feature", "properties": { "Name": "C-7B RECOLETOS", "description": null }, "geometry": { "type": "Point", "coordinates": [ -3.690860163279938, 40.42340615992542 ] } },
{ "type": "Feature", "properties": { "Name": "C-8A ALCALÁ DE HENARES", "description": null }, "geometry": { "type": "Point", "coordinates": [ -3.366345988497244, 40.489025382703794 ] } },
{ "type": "Feature", "properties": { "Name": "C-8A ALCALÁ DE HENARES UNIVERSIDAD", "description": null }, "geometry": { "type": "Point", "coordinates": [ -3.335417591794884, 40.505335483779135 ] } },
{ "type": "Feature", "properties": { "Name": "C-8A ASAMBLEA DE MADRID-ENTREVIAS", "description": null }, "geometry": { "type": "Point", "coordinates": [ -3.668014615023188, 40.381666238433745 ] } },
{ "type": "Feature", "properties": { "Name": "C-8A ATOCHA", "description": null }, "geometry": { "type": "Point", "coordinates": [ -3.689309286884385, 40.406586512280242 ] } },
{ "type": "Feature", "properties": { "Name": "C-8A AZUQUECA", "description": null }, "geometry": { "type": "Point", "coordinates": [ -3.265471041498204, 40.561030509406315 ] } },
{ "type": "Feature", "properties": { "Name": "C-8A AZUQUECA", "description": null }, "geometry": { "type": "Point", "coordinates": [ -3.265471041498204, 40.561030509406315 ] } },
{ "type": "Feature", "properties": { "Name": "C-8A CHAMARTIN", "description": null }, "geometry": { "type": "Point", "coordinates": [ -3.682476048547155, 40.472095554139912 ] } },
{ "type": "Feature", "properties": { "Name": "C-8A COSLADA", "description": null }, "geometry": { "type": "Point", "coordinates": [ -3.561146077392619, 40.423730134161147 ] } },
{ "type": "Feature", "properties": { "Name": "C-8A ESCORIAL, EL", "description": null }, "geometry": { "type": "Point", "coordinates": [ -4.132340864693605, 40.585262374313508 ] } },
{ "type": "Feature", "properties": { "Name": "C-8A GALAPAGAR-LA NAVATA", "description": null }, "geometry": { "type": "Point", "coordinates": [ -3.981864504873055, 40.600107520110988 ] } },
{ "type": "Feature", "properties": { "Name": "C-8A GARENA, LA", "description": null }, "geometry": { "type": "Point", "coordinates": [ -3.393175549897824, 40.480432717334708 ] } },
{ "type": "Feature", "properties": { "Name": "C-8A GUADALAJARA", "description": null }, "geometry": { "type": "Point", "coordinates": [ -3.182395924654478, 40.644082003713358 ] } },
{ "type": "Feature", "properties": { "Name": "C-8A MATAS, LAS", "description": null }, "geometry": { "type": "Point", "coordinates": [ -3.89684104191362, 40.552512233963505 ] } },
{ "type": "Feature", "properties": { "Name": "C-8A MECO", "description": null }, "geometry": { "type": "Point", "coordinates": [ -3.29866449650398, 40.534616370750307 ] } },
{ "type": "Feature", "properties": { "Name": "C-8A NUEVOS MINISTERIOS", "description": null }, "geometry": { "type": "Point", "coordinates": [ -3.692347707353604, 40.446613500444208 ] } },
{ "type": "Feature", "properties": { "Name": "C-8A PINAR DE LAS ROZAS", "description": null }, "geometry": { "type": "Point", "coordinates": [ -3.88216547527542, 40.52229261381278 ] } },
{ "type": "Feature", "properties": { "Name": "C-8A PITIS", "description": null }, "geometry": { "type": "Point", "coordinates": [ -3.725852307389196, 40.495101363520078 ] } },
{ "type": "Feature", "properties": { "Name": "C-8A POZO, EL", "description": null }, "geometry": { "type": "Point", "coordinates": [ -3.65623667194838, 40.375895769561872 ] } },
{ "type": "Feature", "properties": { "Name": "C-8A RAMON Y CAJAL", "description": null }, "geometry": { "type": "Point", "coordinates": [ -3.694745799781866, 40.488238559271267 ] } },
{ "type": "Feature", "properties": { "Name": "C-8A RECOLETOS", "description": null }, "geometry": { "type": "Point", "coordinates": [ -3.690860163279938, 40.42340615992542 ] } },
{ "type": "Feature", "properties": { "Name": "C-8A ROBLEDO DE CHAVELA", "description": null }, "geometry": { "type": "Point", "coordinates": [ -4.246718589023136, 40.520771925624736 ] } },
{ "type": "Feature", "properties": { "Name": "C-8A SAN FERNANDO", "description": null }, "geometry": { "type": "Point", "coordinates": [ -3.533852770176998, 40.442661299211494 ] } },
{ "type": "Feature", "properties": { "Name": "C-8A SAN YAGO", "description": null }, "geometry": { "type": "Point", "coordinates": [ -4.031115097086756, 40.617857732793667 ] } },
{ "type": "Feature", "properties": { "Name": "C-8A SANTA EUGENIA", "description": null }, "geometry": { "type": "Point", "coordinates": [ -3.60906393384262, 40.386982804664136 ] } },
{ "type": "Feature", "properties": { "Name": "C-8A SANTA MARIA DE LA ALAMEDA", "description": null }, "geometry": { "type": "Point", "coordinates": [ -4.269336298057667, 40.568910871828791 ] } },
{ "type": "Feature", "properties": { "Name": "C-8A TORREJON DE ARDOZ", "description": null }, "geometry": { "type": "Point", "coordinates": [ -3.479826252209788, 40.454600927102526 ] } },
{ "type": "Feature", "properties": { "Name": "C-8A TORRELODONES", "description": null }, "geometry": { "type": "Point", "coordinates": [ -3.956549700643582, 40.574501047554328 ] } },
{ "type": "Feature", "properties": { "Name": "C-8A VALLECAS", "description": null }, "geometry": { "type": "Point", "coordinates": [ -3.624560007555698, 40.382206398678932 ] } },
{ "type": "Feature", "properties": { "Name": "C-8A VICALVARO", "description": null }, "geometry": { "type": "Point", "coordinates": [ -3.595935723437658, 40.401312624890139 ] } },
{ "type": "Feature", "properties": { "Name": "C-8A VILLALBA", "description": null }, "geometry": { "type": "Point", "coordinates": [ -4.00810707481334, 40.626357805225439 ] } },
{ "type": "Feature", "properties": { "Name": "C-8A ZARZALEJO", "description": null }, "geometry": { "type": "Point", "coordinates": [ -4.158172013443555, 40.538710857392033 ] } },
{ "type": "Feature", "properties": { "Name": "C-8A ZORRERAS, LAS", "description": null }, "geometry": { "type": "Point", "coordinates": [ -4.046068266322878, 40.609408304393597 ] } },
{ "type": "Feature", "properties": { "Name": "C-8B ALCALÁ DE HENARES", "description": null }, "geometry": { "type": "Point", "coordinates": [ -3.366345988497244, 40.489025382703794 ] } },
{ "type": "Feature", "properties": { "Name": "C-8B ALCALÁ DE HENARES UNIVERSIDAD", "description": null }, "geometry": { "type": "Point", "coordinates": [ -3.335417591794884, 40.505335483779135 ] } },
{ "type": "Feature", "properties": { "Name": "C-8B ALPEDRETE", "description": null }, "geometry": { "type": "Point", "coordinates": [ -4.035071166744098, 40.658153755874118 ] } },
{ "type": "Feature", "properties": { "Name": "C-8B ASAMBLEA DE MADRID-ENTREVIAS", "description": null }, "geometry": { "type": "Point", "coordinates": [ -3.668014615023188, 40.381666238433745 ] } },
{ "type": "Feature", "properties": { "Name": "C-8B ATOCHA", "description": null }, "geometry": { "type": "Point", "coordinates": [ -3.689309286884385, 40.406586512280242 ] } },
{ "type": "Feature", "properties": { "Name": "C-8B AZUQUECA", "description": null }, "geometry": { "type": "Point", "coordinates": [ -3.265471041498204, 40.561030509406315 ] } },
{ "type": "Feature", "properties": { "Name": "C-8B AZUQUECA", "description": null }, "geometry": { "type": "Point", "coordinates": [ -3.265471041498204, 40.561030509406315 ] } },
{ "type": "Feature", "properties": { "Name": "C-8B CERCEDILLA", "description": null }, "geometry": { "type": "Point", "coordinates": [ -4.065909176311622, 40.737562161291663 ] } },
{ "type": "Feature", "properties": { "Name": "C-8B CERCEDILLA", "description": null }, "geometry": { "type": "Point", "coordinates": [ -4.065909176311622, 40.737562161291663 ] } },
{ "type": "Feature", "properties": { "Name": "C-8B CHAMARTIN", "description": null }, "geometry": { "type": "Point", "coordinates": [ -3.682476048547155, 40.472095554139912 ] } },
{ "type": "Feature", "properties": { "Name": "C-8B COLLADO MEDIANO", "description": null }, "geometry": { "type": "Point", "coordinates": [ -4.035878589394359, 40.692748251610979 ] } },
{ "type": "Feature", "properties": { "Name": "C-8B COSLADA", "description": null }, "geometry": { "type": "Point", "coordinates": [ -3.561146077392619, 40.423730134161147 ] } },
{ "type": "Feature", "properties": { "Name": "C-8B GALAPAGAR-LA NAVATA", "description": null }, "geometry": { "type": "Point", "coordinates": [ -3.981864504873055, 40.600107520110988 ] } },
{ "type": "Feature", "properties": { "Name": "C-8B GARENA, LA", "description": null }, "geometry": { "type": "Point", "coordinates": [ -3.393175549897824, 40.480432717334708 ] } },
{ "type": "Feature", "properties": { "Name": "C-8B GUADALAJARA", "description": null }, "geometry": { "type": "Point", "coordinates": [ -3.182395924654478, 40.644082003713358 ] } },
{ "type": "Feature", "properties": { "Name": "C-8B MATAS, LAS", "description": null }, "geometry": { "type": "Point", "coordinates": [ -3.89684104191362, 40.552512233963505 ] } },
{ "type": "Feature", "properties": { "Name": "C-8B MECO", "description": null }, "geometry": { "type": "Point", "coordinates": [ -3.29866449650398, 40.534616370750307 ] } },
{ "type": "Feature", "properties": { "Name": "C-8B MOLINOS, LOS", "description": null }, "geometry": { "type": "Point", "coordinates": [ -4.06682396746246, 40.707339406615482 ] } },
{ "type": "Feature", "properties": { "Name": "C-8B NEGRALES, LOS", "description": null }, "geometry": { "type": "Point", "coordinates": [ -4.02190219239213, 40.638569318992978 ] } },
{ "type": "Feature", "properties": { "Name": "C-8B NUEVOS MINISTERIOS", "description": null }, "geometry": { "type": "Point", "coordinates": [ -3.692347707353604, 40.446613500444208 ] } },
{ "type": "Feature", "properties": { "Name": "C-8B PINAR DE LAS ROZAS", "description": null }, "geometry": { "type": "Point", "coordinates": [ -3.88216547527542, 40.52229261381278 ] } },
{ "type": "Feature", "properties": { "Name": "C-8B PITIS", "description": null }, "geometry": { "type": "Point", "coordinates": [ -3.725852307389196, 40.495101363520078 ] } },
{ "type": "Feature", "properties": { "Name": "C-8B POZO, EL", "description": null }, "geometry": { "type": "Point", "coordinates": [ -3.65623667194838, 40.375895769561872 ] } },
{ "type": "Feature", "properties": { "Name": "C-8B RAMON Y CAJAL", "description": null }, "geometry": { "type": "Point", "coordinates": [ -3.694745799781866, 40.488238559271267 ] } },
{ "type": "Feature", "properties": { "Name": "C-8B RECOLETOS", "description": null }, "geometry": { "type": "Point", "coordinates": [ -3.690860163279938, 40.42340615992542 ] } },
{ "type": "Feature", "properties": { "Name": "C-8B SAN FERNANDO", "description": null }, "geometry": { "type": "Point", "coordinates": [ -3.533852770176998, 40.442661299211494 ] } },
{ "type": "Feature", "properties": { "Name": "C-8B SANTA EUGENIA", "description": null }, "geometry": { "type": "Point", "coordinates": [ -3.60906393384262, 40.386982804664136 ] } },
{ "type": "Feature", "properties": { "Name": "C-8B TORREJON DE ARDOZ", "description": null }, "geometry": { "type": "Point", "coordinates": [ -3.479826252209788, 40.454600927102526 ] } },
{ "type": "Feature", "properties": { "Name": "C-8B TORRELODONES", "description": null }, "geometry": { "type": "Point", "coordinates": [ -3.956549700643582, 40.574501047554328 ] } },
{ "type": "Feature", "properties": { "Name": "C-8B VALLECAS", "description": null }, "geometry": { "type": "Point", "coordinates": [ -3.624560007555698, 40.382206398678932 ] } },
{ "type": "Feature", "properties": { "Name": "C-8B VICALVARO", "description": null }, "geometry": { "type": "Point", "coordinates": [ -3.595935723437658, 40.401312624890139 ] } },
{ "type": "Feature", "properties": { "Name": "C-8B VILLALBA", "description": null }, "geometry": { "type": "Point", "coordinates": [ -4.00810707481334, 40.626357805225439 ] } },
{ "type": "Feature", "properties": { "Name": "C-9 CERCEDILLA", "description": null }, "geometry": { "type": "Point", "coordinates": [ -4.065909176311622, 40.737562161291663 ] } },
{ "type": "Feature", "properties": { "Name": "C-9 COTOS", "description": null }, "geometry": { "type": "Point", "coordinates": [ -3.964523501530237, 40.822250064530721 ] } },
{ "type": "Feature", "properties": { "Name": "C-9 PUERTO NAVACERRADA", "description": null }, "geometry": { "type": "Point", "coordinates": [ -4.004745224139175, 40.784405042457941 ] } }
]
}
