{
"type": "FeatureCollection",
"name": "Metro",
"crs": { "type": "name", "properties": { "name": "urn:ogc:def:crs:OGC:1.3:CRS84" } },
"features": [
{ "type": "Feature", "properties": { "Name": "1 ALTO DEL ARENAL", "description": null }, "geometry": { "type": "Point", "coordinates": [ -3.645225283556576, 40.389768700352434 ] } },
{ "type": "Feature", "properties": { "Name": "1 ALVARADO", "description": null }, "geometry": { "type": "Point", "coordinates": [ -3.703317807079691, 40.450331054133351 ] } },
{ "type": "Feature", "properties": { "Name": "1 ANTON MARTIN", "description": null }, "geometry": { "type": "Point", "coordinates": [ -3.69937574167324, 40.412463028188121 ] } },
{ "type": "Feature", "properties": { "Name": "1 ATOCHA", "description": null }, "geometry": { "type": "Point", "coordinates": [ -3.692490883566612, 40.408846792956474 ] } },
{ "type": "Feature", "properties": { "Name": "1 ATOCHA RENFE", "description": null }, "geometry": { "type": "Point", "coordinates": [ -3.689379993715528, 40.406586090726144 ] } },
{ "type": "Feature", "properties": { "Name": "1 BAMBU", "description": null }, "geometry": { "type": "Point", "coordinates": [ -3.676377276244711, 40.476807055937719 ] } },
{ "type": "Feature", "properties": { "Name": "1 BILBAO", "description": null }, "geometry": { "type": "Point", "coordinates": [ -3.702188295886296, 40.429049635829308 ] } },
{ "type": "Feature", "properties": { "Name": "1 BUENOS AIRES", "description": null }, "geometry": { "type": "Point", "coordinates": [ -3.65391434000143, 40.391557746041329 ] } },
{ "type": "Feature", "properties": { "Name": "1 CHAMARTIN", "description": null }, "geometry": { "type": "Point", "coordinates": [ -3.682593278115451, 40.472022790163599 ] } },
{ "type": "Feature", "properties": { "Name": "1 CONGOSTO", "description": null }, "geometry": { "type": "Point", "coordinates": [ -3.618850584099445, 40.372381107450167 ] } },
{ "type": "Feature", "properties": { "Name": "1 CUATRO CAMINOS", "description": null }, "geometry": { "type": "Point", "coordinates": [ -3.70397847665402, 40.446966678007556 ] } },
{ "type": "Feature", "properties": { "Name": "1 ESTRECHO", "description": null }, "geometry": { "type": "Point", "coordinates": [ -3.703028749396468, 40.454278749227846 ] } },
{ "type": "Feature", "properties": { "Name": "1 GRAN VIA", "description": null }, "geometry": { "type": "Point", "coordinates": [ -3.701811363848994, 40.420006857388664 ] } },
{ "type": "Feature", "properties": { "Name": "1 IGLESIA", "description": null }, "geometry": { "type": "Point", "coordinates": [ -3.698983453377392, 40.434915911434032 ] } },
{ "type": "Feature", "properties": { "Name": "1 LA GAVIA", "description": null }, "geometry": { "type": "Point", "coordinates": [ -3.61347110393631, 40.370184511883821 ] } },
{ "type": "Feature", "properties": { "Name": "1 LAS SUERTES", "description": null }, "geometry": { "type": "Point", "coordinates": [ -3.599533888220315, 40.363221458113088 ] } },
{ "type": "Feature", "properties": { "Name": "1 MENENDEZ PELAYO", "description": null }, "geometry": { "type": "Point", "coordinates": [ -3.68099094552854, 40.404446601213934 ] } },
{ "type": "Feature", "properties": { "Name": "1 MIGUEL HERNANDEZ", "description": null }, "geometry": { "type": "Point", "coordinates": [ -3.639511225386237, 40.387313929827769 ] } },
{ "type": "Feature", "properties": { "Name": "1 NUEVA NUMANCIA", "description": null }, "geometry": { "type": "Point", "coordinates": [ -3.66414535178604, 40.395535508762855 ] } },
{ "type": "Feature", "properties": { "Name": "1 PACIFICO", "description": null }, "geometry": { "type": "Point", "coordinates": [ -3.675137363680283, 40.401255680712232 ] } },
{ "type": "Feature", "properties": { "Name": "1 PINAR DE CHAMARTIN", "description": null }, "geometry": { "type": "Point", "coordinates": [ -3.666807043721632, 40.480132917491311 ] } },
{ "type": "Feature", "properties": { "Name": "1 PLAZA DE CASTILLA", "description": null }, "geometry": { "type": "Point", "coordinates": [ -3.689182340661554, 40.466893623466774 ] } },
{ "type": "Feature", "properties": { "Name": "1 PORTAZGO", "description": null }, "geometry": { "type": "Point", "coordinates": [ -3.658685211486692, 40.392656804760804 ] } },
{ "type": "Feature", "properties": { "Name": "1 PUENTE DE VALLECAS", "description": null }, "geometry": { "type": "Point", "coordinates": [ -3.669061703442904, 40.398191873219901 ] } },
{ "type": "Feature", "properties": { "Name": "1 RIOS ROSAS", "description": null }, "geometry": { "type": "Point", "coordinates": [ -3.701332287321166, 40.441973758517904 ] } },
{ "type": "Feature", "properties": { "Name": "1 SIERRA DE GUADALUPE", "description": null }, "geometry": { "type": "Point", "coordinates": [ -3.624724516699161, 40.382160464466452 ] } },
{ "type": "Feature", "properties": { "Name": "1 SOL", "description": null }, "geometry": { "type": "Point", "coordinates": [ -3.703263947248822, 40.416871893770455 ] } },
{ "type": "Feature", "properties": { "Name": "1 TETUAN", "description": null }, "geometry": { "type": "Point", "coordinates": [ -3.69825834158428, 40.460550888421558 ] } },
{ "type": "Feature", "properties": { "Name": "1 TIRSO DE MOLINA", "description": null }, "geometry": { "type": "Point", "coordinates": [ -3.704666474578768, 40.412340813197183 ] } },
{ "type": "Feature", "properties": { "Name": "1 TRIBUNAL", "description": null }, "geometry": { "type": "Point", "coordinates": [ -3.701109289546837, 40.426182305029535 ] } },
{ "type": "Feature", "properties": { "Name": "1 VALDEACEDERAS", "description": null }, "geometry": { "type": "Point", "coordinates": [ -3.695066466512397, 40.46441695832889 ] } },
{ "type": "Feature", "properties": { "Name": "1 VALDECARROS", "description": null }, "geometry": { "type": "Point", "coordinates": [ -3.593169836651139, 40.360065031377921 ] } },
{ "type": "Feature", "properties": { "Name": "1 VILLA DE VALLECAS", "description": null }, "geometry": { "type": "Point", "coordinates": [ -3.621308015889596, 40.37959325302986 ] } },
{ "type": "Feature", "properties": { "Name": "10A ALONSO MARTINEZ", "description": null }, "geometry": { "type": "Point", "coordinates": [ -3.696441598173451, 40.428525837917782 ] } },
{ "type": "Feature", "properties": { "Name": "10A AVIACION ESPAÑOLA", "description": null }, "geometry": { "type": "Point", "coordinates": [ -3.783925418680028, 40.383632271282949 ] } },
{ "type": "Feature", "properties": { "Name": "10A BATAN", "description": null }, "geometry": { "type": "Point", "coordinates": [ -3.75311658343704, 40.407855177733602 ] } },
{ "type": "Feature", "properties": { "Name": "10A BEGOÑA", "description": null }, "geometry": { "type": "Point", "coordinates": [ -3.685851900442342, 40.480408856012424 ] } },
{ "type": "Feature", "properties": { "Name": "10A CASA DE CAMPO", "description": null }, "geometry": { "type": "Point", "coordinates": [ -3.761019280890242, 40.403199812127873 ] } },
{ "type": "Feature", "properties": { "Name": "10A CHAMARTIN", "description": null }, "geometry": { "type": "Point", "coordinates": [ -3.682594007873076, 40.47209485756391 ] } },
{ "type": "Feature", "properties": { "Name": "10A COLONIA JARDIN", "description": null }, "geometry": { "type": "Point", "coordinates": [ -3.774618016060599, 40.39697434800015 ] } },
{ "type": "Feature", "properties": { "Name": "10A CUATRO VIENTOS", "description": null }, "geometry": { "type": "Point", "coordinates": [ -3.791525479765706, 40.377697576926536 ] } },
{ "type": "Feature", "properties": { "Name": "10A CUZCO", "description": null }, "geometry": { "type": "Point", "coordinates": [ -3.689862379719021, 40.458421129185616 ] } },
{ "type": "Feature", "properties": { "Name": "10A FUENCARRAL", "description": null }, "geometry": { "type": "Point", "coordinates": [ -3.692833839645428, 40.495078806314723 ] } },
{ "type": "Feature", "properties": { "Name": "10A GREGORIO MARAÑON", "description": null }, "geometry": { "type": "Point", "coordinates": [ -3.691275897641476, 40.437529826448035 ] } },
{ "type": "Feature", "properties": { "Name": "10A JOAQUIN VILUMBRALES", "description": null }, "geometry": { "type": "Point", "coordinates": [ -3.80720227856311, 40.349841215970052 ] } },
{ "type": "Feature", "properties": { "Name": "10A LAGO", "description": null }, "geometry": { "type": "Point", "coordinates": [ -3.735637717083998, 40.41640917765352 ] } },
{ "type": "Feature", "properties": { "Name": "10A NUEVOS MINISTERIOS", "description": null }, "geometry": { "type": "Point", "coordinates": [ -3.692418086269178, 40.446577042902604 ] } },
{ "type": "Feature", "properties": { "Name": "10A PLAZA DE CASTILLA", "description": null }, "geometry": { "type": "Point", "coordinates": [ -3.689087980611291, 40.466894186056692 ] } },
{ "type": "Feature", "properties": { "Name": "10A PLAZA DE ESPAÑA", "description": null }, "geometry": { "type": "Point", "coordinates": [ -3.709704711212932, 40.42408480996496 ] } },
{ "type": "Feature", "properties": { "Name": "10A PRINCIPE PIO", "description": null }, "geometry": { "type": "Point", "coordinates": [ -3.720328666004263, 40.421028107089469 ] } },
{ "type": "Feature", "properties": { "Name": "10A PUERTA DEL SUR", "description": null }, "geometry": { "type": "Point", "coordinates": [ -3.812116233154177, 40.345239196015818 ] } },
{ "type": "Feature", "properties": { "Name": "10A SANTIAGO BERNABEU", "description": null }, "geometry": { "type": "Point", "coordinates": [ -3.690382068697231, 40.451580204753803 ] } },
{ "type": "Feature", "properties": { "Name": "10A TRES OLIVOS", "description": null }, "geometry": { "type": "Point", "coordinates": [ -3.695209949418143, 40.501199611278061 ] } },
{ "type": "Feature", "properties": { "Name": "10A TRIBUNAL", "description": null }, "geometry": { "type": "Point", "coordinates": [ -3.702085714804753, 40.425987189855732 ] } },
{ "type": "Feature", "properties": { "Name": "10B BAUNATAL", "description": null }, "geometry": { "type": "Point", "coordinates": [ -3.635133826137124, 40.554418585079773 ] } },
{ "type": "Feature", "properties": { "Name": "10B HOSPITAL INFANTA SOFIA", "description": null }, "geometry": { "type": "Point", "coordinates": [ -3.611465758862776, 40.559762401707751 ] } },
{ "type": "Feature", "properties": { "Name": "10B LA GRANJA", "description": null }, "geometry": { "type": "Point", "coordinates": [ -3.658599532025724, 40.527593933186594 ] } },
{ "type": "Feature", "properties": { "Name": "10B LA MORALEJA", "description": null }, "geometry": { "type": "Point", "coordinates": [ -3.635571004361775, 40.531948065403192 ] } },
{ "type": "Feature", "properties": { "Name": "10B LAS TABLAS", "description": null }, "geometry": { "type": "Point", "coordinates": [ -3.669446787174648, 40.50832462832863 ] } },
{ "type": "Feature", "properties": { "Name": "10B MANUEL DE FALLA", "description": null }, "geometry": { "type": "Point", "coordinates": [ -3.646883386851369, 40.550479588615588 ] } },
{ "type": "Feature", "properties": { "Name": "10B MARQUES DE LA VALDAVIA", "description": null }, "geometry": { "type": "Point", "coordinates": [ -3.637392614740866, 40.541018979358377 ] } },
{ "type": "Feature", "properties": { "Name": "10B MONTECARMELO", "description": null }, "geometry": { "type": "Point", "coordinates": [ -3.695759277615474, 40.505250315593727 ] } },
{ "type": "Feature", "properties": { "Name": "10B REYES CATOLICOS", "description": null }, "geometry": { "type": "Point", "coordinates": [ -3.623403333732304, 40.550374439557125 ] } },
{ "type": "Feature", "properties": { "Name": "10B RONDA DE LA COMUNICACION", "description": null }, "geometry": { "type": "Point", "coordinates": [ -3.662778260425358, 40.515534158234111 ] } },
{ "type": "Feature", "properties": { "Name": "10B TRES OLIVOS", "description": null }, "geometry": { "type": "Point", "coordinates": [ -3.695209949418143, 40.501199611278061 ] } },
{ "type": "Feature", "properties": { "Name": "11 ABRANTES", "description": null }, "geometry": { "type": "Point", "coordinates": [ -3.72791115890327, 40.380827238821148 ] } },
{ "type": "Feature", "properties": { "Name": "11 CARABANCHEL ALTO", "description": null }, "geometry": { "type": "Point", "coordinates": [ -3.751916263742287, 40.37199788960605 ] } },
{ "type": "Feature", "properties": { "Name": "11 LA FORTUNA", "description": null }, "geometry": { "type": "Point", "coordinates": [ -3.777833779671177, 40.357952459398284 ] } },
{ "type": "Feature", "properties": { "Name": "11 LA PESETA", "description": null }, "geometry": { "type": "Point", "coordinates": [ -3.756906023990758, 40.364217512605684 ] } },
{ "type": "Feature", "properties": { "Name": "11 PAN BENDITO", "description": null }, "geometry": { "type": "Point", "coordinates": [ -3.734171678429012, 40.375859688051982 ] } },
{ "type": "Feature", "properties": { "Name": "11 PLAZA ELIPTICA", "description": null }, "geometry": { "type": "Point", "coordinates": [ -3.71825572000441, 40.384599358863206 ] } },
{ "type": "Feature", "properties": { "Name": "11 SAN FRANCISCO", "description": null }, "geometry": { "type": "Point", "coordinates": [ -3.73910622280992, 40.373593999264372 ] } },
{ "type": "Feature", "properties": { "Name": "12 ALCORCON CENTRAL", "description": null }, "geometry": { "type": "Point", "coordinates": [ -3.831780169348705, 40.350081487697828 ] } },
{ "type": "Feature", "properties": { "Name": "12 ALONSO DE MENDOZA", "description": null }, "geometry": { "type": "Point", "coordinates": [ -3.736641503588036, 40.300806750054029 ] } },
{ "type": "Feature", "properties": { "Name": "12 ARROYO CULEBRO", "description": null }, "geometry": { "type": "Point", "coordinates": [ -3.756828049687434, 40.28873924742738 ] } },
{ "type": "Feature", "properties": { "Name": "12 CASA DEL RELOJ", "description": null }, "geometry": { "type": "Point", "coordinates": [ -3.759428416851752, 40.326596851073823 ] } },
{ "type": "Feature", "properties": { "Name": "12 CONSERVATORIO", "description": null }, "geometry": { "type": "Point", "coordinates": [ -3.745771718182202, 40.29324358021325 ] } },
{ "type": "Feature", "properties": { "Name": "12 EL BERCIAL", "description": null }, "geometry": { "type": "Point", "coordinates": [ -3.729638476861858, 40.329067914202987 ] } },
{ "type": "Feature", "properties": { "Name": "12 EL CARRASCAL", "description": null }, "geometry": { "type": "Point", "coordinates": [ -3.740186134231994, 40.336631659114431 ] } },
{ "type": "Feature", "properties": { "Name": "12 EL CASAR", "description": null }, "geometry": { "type": "Point", "coordinates": [ -3.709858580208267, 40.318623218355846 ] } },
{ "type": "Feature", "properties": { "Name": "12 FUENLABRADA CENTRAL", "description": null }, "geometry": { "type": "Point", "coordinates": [ -3.798909369146008, 40.282672409397556 ] } },
{ "type": "Feature", "properties": { "Name": "12 GETAFE CENTRAL", "description": null }, "geometry": { "type": "Point", "coordinates": [ -3.734033820285517, 40.309922620744835 ] } },
{ "type": "Feature", "properties": { "Name": "12 HOSPITAL DE FUENLABRADA", "description": null }, "geometry": { "type": "Point", "coordinates": [ -3.81642706635241, 40.285748393549163 ] } },
{ "type": "Feature", "properties": { "Name": "12 HOSPITAL DE MOSTOLES", "description": null }, "geometry": { "type": "Point", "coordinates": [ -3.874715028557068, 40.316521121799106 ] } },
{ "type": "Feature", "properties": { "Name": "12 HOSPITAL SEVERO OCHOA", "description": null }, "geometry": { "type": "Point", "coordinates": [ -3.767978430492755, 40.321765545104476 ] } },
{ "type": "Feature", "properties": { "Name": "12 JUAN DE LA CIERVA", "description": null }, "geometry": { "type": "Point", "coordinates": [ -3.722250149825076, 40.31179862923095 ] } },
{ "type": "Feature", "properties": { "Name": "12 JULIAN BESTEIRO", "description": null }, "geometry": { "type": "Point", "coordinates": [ -3.752668024867676, 40.33474027119545 ] } },
{ "type": "Feature", "properties": { "Name": "12 LEGANES CENTRAL", "description": null }, "geometry": { "type": "Point", "coordinates": [ -3.771544563900886, 40.328976170442431 ] } },
{ "type": "Feature", "properties": { "Name": "12 LORANCA", "description": null }, "geometry": { "type": "Point", "coordinates": [ -3.837691907608786, 40.29680381534007 ] } },
{ "type": "Feature", "properties": { "Name": "12 LOS ESPARTALES", "description": null }, "geometry": { "type": "Point", "coordinates": [ -3.718203881803276, 40.324220465768875 ] } },
{ "type": "Feature", "properties": { "Name": "12 MANUELA MALASAÑA", "description": null }, "geometry": { "type": "Point", "coordinates": [ -3.864026990199768, 40.309024755756212 ] } },
{ "type": "Feature", "properties": { "Name": "12 MOSTOLES CENTRAL", "description": null }, "geometry": { "type": "Point", "coordinates": [ -3.86354543302905, 40.328497095803087 ] } },
{ "type": "Feature", "properties": { "Name": "12 PARQUE DE LOS ESTADOS", "description": null }, "geometry": { "type": "Point", "coordinates": [ -3.786982308252156, 40.286835325414081 ] } },
{ "type": "Feature", "properties": { "Name": "12 PARQUE EUROPA", "description": null }, "geometry": { "type": "Point", "coordinates": [ -3.806326586356973, 40.285170563252649 ] } },
{ "type": "Feature", "properties": { "Name": "12 PARQUE LISBOA", "description": null }, "geometry": { "type": "Point", "coordinates": [ -3.821201088983314, 40.349679603795508 ] } },
{ "type": "Feature", "properties": { "Name": "12 PARQUE OESTE", "description": null }, "geometry": { "type": "Point", "coordinates": [ -3.849343411436546, 40.345890739787706 ] } },
{ "type": "Feature", "properties": { "Name": "12 PRADILLO", "description": null }, "geometry": { "type": "Point", "coordinates": [ -3.864894489865633, 40.321676116816093 ] } },
{ "type": "Feature", "properties": { "Name": "12 PUERTA DEL SUR", "description": null }, "geometry": { "type": "Point", "coordinates": [ -3.81249525374088, 40.345425725501414 ] } },
{ "type": "Feature", "properties": { "Name": "12 SAN NICASIO", "description": null }, "geometry": { "type": "Point", "coordinates": [ -3.775876336583448, 40.336154514292971 ] } },
{ "type": "Feature", "properties": { "Name": "12 UNIVERSIDAD REY JUAN CARLOS", "description": null }, "geometry": { "type": "Point", "coordinates": [ -3.872188547431641, 40.33511700914022 ] } },
{ "type": "Feature", "properties": { "Name": "2 ALSACIA", "description": null }, "geometry": { "type": "Point", "coordinates": [ -3.623514402764719, 40.418284443909386 ] } },
{ "type": "Feature", "properties": { "Name": "2 AVENIDA DE GUADALAJARA", "description": null }, "geometry": { "type": "Point", "coordinates": [ -3.612070828457266, 40.422390661721714 ] } },
{ "type": "Feature", "properties": { "Name": "2 BANCO DE ESPAÑA", "description": null }, "geometry": { "type": "Point", "coordinates": [ -3.694966494593289, 40.419219373286673 ] } },
{ "type": "Feature", "properties": { "Name": "2 CANAL", "description": null }, "geometry": { "type": "Point", "coordinates": [ -3.704337220993404, 40.438405940454523 ] } },
{ "type": "Feature", "properties": { "Name": "2 CUATRO CAMINOS", "description": null }, "geometry": { "type": "Point", "coordinates": [ -3.703931310714305, 40.446966965235241 ] } },
{ "type": "Feature", "properties": { "Name": "2 GOYA", "description": null }, "geometry": { "type": "Point", "coordinates": [ -3.675912375956939, 40.424539565096111 ] } },
{ "type": "Feature", "properties": { "Name": "2 LA ALMUDENA", "description": null }, "geometry": { "type": "Point", "coordinates": [ -3.639147584160406, 40.423613520222922 ] } },
{ "type": "Feature", "properties": { "Name": "2 LA ELIPA", "description": null }, "geometry": { "type": "Point", "coordinates": [ -3.650528497343345, 40.426613118001498 ] } },
{ "type": "Feature", "properties": { "Name": "2 LAS ROSAS", "description": null }, "geometry": { "type": "Point", "coordinates": [ -3.603312655422655, 40.423743010416118 ] } },
{ "type": "Feature", "properties": { "Name": "2 MANUEL BECERRA", "description": null }, "geometry": { "type": "Point", "coordinates": [ -3.669261727565083, 40.42790259126464 ] } },
{ "type": "Feature", "properties": { "Name": "2 NOVICIADO", "description": null }, "geometry": { "type": "Point", "coordinates": [ -3.707425679563484, 40.424837518209209 ] } },
{ "type": "Feature", "properties": { "Name": "2 OPERA", "description": null }, "geometry": { "type": "Point", "coordinates": [ -3.709429506715207, 40.41808648235822 ] } },
{ "type": "Feature", "properties": { "Name": "2 PRINCIPE DE VERGARA", "description": null }, "geometry": { "type": "Point", "coordinates": [ -3.68012825628825, 40.422938258696981 ] } },
{ "type": "Feature", "properties": { "Name": "2 QUEVEDO", "description": null }, "geometry": { "type": "Point", "coordinates": [ -3.704342021621606, 40.433216719734482 ] } },
{ "type": "Feature", "properties": { "Name": "2 RETIRO", "description": null }, "geometry": { "type": "Point", "coordinates": [ -3.686254788904502, 40.420298442434046 ] } },
{ "type": "Feature", "properties": { "Name": "2 SAN BERNARDO", "description": null }, "geometry": { "type": "Point", "coordinates": [ -3.705581815646314, 40.430010957732819 ] } },
{ "type": "Feature", "properties": { "Name": "2 SANTO DOMINGO", "description": null }, "geometry": { "type": "Point", "coordinates": [ -3.70796634277563, 40.421311677323516 ] } },
{ "type": "Feature", "properties": { "Name": "2 SEVILLA", "description": null }, "geometry": { "type": "Point", "coordinates": [ -3.699256777934109, 40.418049356378113 ] } },
{ "type": "Feature", "properties": { "Name": "2 SOL", "description": null }, "geometry": { "type": "Point", "coordinates": [ -3.703263665852006, 40.416844868354659 ] } },
{ "type": "Feature", "properties": { "Name": "2 VENTAS", "description": null }, "geometry": { "type": "Point", "coordinates": [ -3.663667689792175, 40.43088079412545 ] } },
{ "type": "Feature", "properties": { "Name": "3 ALMENDRALES", "description": null }, "geometry": { "type": "Point", "coordinates": [ -3.697892329475578, 40.38409341257691 ] } },
{ "type": "Feature", "properties": { "Name": "3 ARGÜELLES", "description": null }, "geometry": { "type": "Point", "coordinates": [ -3.715975031788373, 40.430658770692084 ] } },
{ "type": "Feature", "properties": { "Name": "3 CALLAO", "description": null }, "geometry": { "type": "Point", "coordinates": [ -3.705667145396169, 40.420127531994346 ] } },
{ "type": "Feature", "properties": { "Name": "3 CIUDAD DE LOS ANGELES", "description": null }, "geometry": { "type": "Point", "coordinates": [ -3.693635291131088, 40.359578197527433 ] } },
{ "type": "Feature", "properties": { "Name": "3 DELICIAS", "description": null }, "geometry": { "type": "Point", "coordinates": [ -3.69420215115586, 40.399899539000728 ] } },
{ "type": "Feature", "properties": { "Name": "3 EMBAJADORES", "description": null }, "geometry": { "type": "Point", "coordinates": [ -3.702681992509139, 40.405118619725911 ] } },
{ "type": "Feature", "properties": { "Name": "3 HOSPITAL 12 DE OCTUBRE", "description": null }, "geometry": { "type": "Point", "coordinates": [ -3.695855104968134, 40.375024514615511 ] } },
{ "type": "Feature", "properties": { "Name": "3 LAVAPIES", "description": null }, "geometry": { "type": "Point", "coordinates": [ -3.700914055876501, 40.408507747518797 ] } },
{ "type": "Feature", "properties": { "Name": "3 LEGAZPI", "description": null }, "geometry": { "type": "Point", "coordinates": [ -3.695125551387507, 40.391146176794116 ] } },
{ "type": "Feature", "properties": { "Name": "3 MONCLOA", "description": null }, "geometry": { "type": "Point", "coordinates": [ -3.719452174489646, 40.435015564102159 ] } },
{ "type": "Feature", "properties": { "Name": "3 PALOS DE LA FRONTERA", "description": null }, "geometry": { "type": "Point", "coordinates": [ -3.694234726052655, 40.403070535697992 ] } },
{ "type": "Feature", "properties": { "Name": "3 PLAZA DE ESPAÑA", "description": null }, "geometry": { "type": "Point", "coordinates": [ -3.711206486253556, 40.423408913087485 ] } },
{ "type": "Feature", "properties": { "Name": "3 SAN CRISTOBAL", "description": null }, "geometry": { "type": "Point", "coordinates": [ -3.693191432961103, 40.341535535870591 ] } },
{ "type": "Feature", "properties": { "Name": "3 SAN FERMIN-ORCASUR", "description": null }, "geometry": { "type": "Point", "coordinates": [ -3.694177839097669, 40.369989491378796 ] } },
{ "type": "Feature", "properties": { "Name": "3 SOL", "description": null }, "geometry": { "type": "Point", "coordinates": [ -3.703263290656844, 40.416808834466728 ] } },
{ "type": "Feature", "properties": { "Name": "3 VENTURA RODRIGUEZ", "description": null }, "geometry": { "type": "Point", "coordinates": [ -3.713414286193938, 40.427080002151314 ] } },
{ "type": "Feature", "properties": { "Name": "3 VILLAVERDE ALTO", "description": null }, "geometry": { "type": "Point", "coordinates": [ -3.711990993449082, 40.341223138866916 ] } },
{ "type": "Feature", "properties": { "Name": "3 VILLAVERDE BAJO CRUCE", "description": null }, "geometry": { "type": "Point", "coordinates": [ -3.692651332213546, 40.350890273928535 ] } },
{ "type": "Feature", "properties": { "Name": "4 ALFONSO XIII", "description": null }, "geometry": { "type": "Point", "coordinates": [ -3.667918652761096, 40.448243717769387 ] } },
{ "type": "Feature", "properties": { "Name": "4 ALONSO MARTINEZ", "description": null }, "geometry": { "type": "Point", "coordinates": [ -3.695949921063778, 40.427717986325014 ] } },
{ "type": "Feature", "properties": { "Name": "4 ARGÜELLES", "description": null }, "geometry": { "type": "Point", "coordinates": [ -3.715962574409677, 40.430595784720893 ] } },
{ "type": "Feature", "properties": { "Name": "4 ARTURO SORIA", "description": null }, "geometry": { "type": "Point", "coordinates": [ -3.656188122568294, 40.455824409472072 ] } },
{ "type": "Feature", "properties": { "Name": "4 AVENIDA DE AMERICA", "description": null }, "geometry": { "type": "Point", "coordinates": [ -3.676648794181531, 40.438030781889246 ] } },
{ "type": "Feature", "properties": { "Name": "4 AVENIDA DE LA PAZ", "description": null }, "geometry": { "type": "Point", "coordinates": [ -3.661189835951983, 40.453534649572497 ] } },
{ "type": "Feature", "properties": { "Name": "4 BILBAO", "description": null }, "geometry": { "type": "Point", "coordinates": [ -3.701148768266404, 40.428848737521321 ] } },
{ "type": "Feature", "properties": { "Name": "4 CANILLAS", "description": null }, "geometry": { "type": "Point", "coordinates": [ -3.635600579737649, 40.46380429988092 ] } },
{ "type": "Feature", "properties": { "Name": "4 COLON", "description": null }, "geometry": { "type": "Point", "coordinates": [ -3.691010382609427, 40.425414276892688 ] } },
{ "type": "Feature", "properties": { "Name": "4 DIEGO DE LEON", "description": null }, "geometry": { "type": "Point", "coordinates": [ -3.674964501734707, 40.434671254236818 ] } },
{ "type": "Feature", "properties": { "Name": "4 ESPERANZA", "description": null }, "geometry": { "type": "Point", "coordinates": [ -3.645820621327798, 40.459441351876023 ] } },
{ "type": "Feature", "properties": { "Name": "4 GOYA", "description": null }, "geometry": { "type": "Point", "coordinates": [ -3.676858095876717, 40.4248043033313 ] } },
{ "type": "Feature", "properties": { "Name": "4 HORTALEZA", "description": null }, "geometry": { "type": "Point", "coordinates": [ -3.652579637479478, 40.475367302660779 ] } },
{ "type": "Feature", "properties": { "Name": "4 LISTA", "description": null }, "geometry": { "type": "Point", "coordinates": [ -3.675416372881394, 40.429164099118886 ] } },
{ "type": "Feature", "properties": { "Name": "4 MANOTERAS", "description": null }, "geometry": { "type": "Point", "coordinates": [ -3.662905158694452, 40.476867092844046 ] } },
{ "type": "Feature", "properties": { "Name": "4 MAR DE CRISTAL", "description": null }, "geometry": { "type": "Point", "coordinates": [ -3.638331254536745, 40.46941986762225 ] } },
{ "type": "Feature", "properties": { "Name": "4 PARQUE DE SANTA MARIA", "description": null }, "geometry": { "type": "Point", "coordinates": [ -3.645246661748079, 40.477111167925671 ] } },
{ "type": "Feature", "properties": { "Name": "4 PINAR DE CHAMARTIN", "description": null }, "geometry": { "type": "Point", "coordinates": [ -3.666771651588827, 40.48013312167673 ] } },
{ "type": "Feature", "properties": { "Name": "4 PROSPERIDAD", "description": null }, "geometry": { "type": "Point", "coordinates": [ -3.674823828820341, 40.444185596768286 ] } },
{ "type": "Feature", "properties": { "Name": "4 SAN BERNARDO", "description": null }, "geometry": { "type": "Point", "coordinates": [ -3.705684239874848, 40.429658980719978 ] } },
{ "type": "Feature", "properties": { "Name": "4 SAN LORENZO", "description": null }, "geometry": { "type": "Point", "coordinates": [ -3.639582350261602, 40.47446698722932 ] } },
{ "type": "Feature", "properties": { "Name": "4 SERRANO", "description": null }, "geometry": { "type": "Point", "coordinates": [ -3.686637031792093, 40.425431324777293 ] } },
{ "type": "Feature", "properties": { "Name": "4 VELAZQUEZ", "description": null }, "geometry": { "type": "Point", "coordinates": [ -3.682919600902411, 40.42502991887892 ] } },
{ "type": "Feature", "properties": { "Name": "5 ACACIAS", "description": null }, "geometry": { "type": "Point", "coordinates": [ -3.706652231139894, 40.403869190944739 ] } },
{ "type": "Feature", "properties": { "Name": "5 ALAMEDA DE OSUNA", "description": null }, "geometry": { "type": "Point", "coordinates": [ -3.587529851420831, 40.457788368783184 ] } },
{ "type": "Feature", "properties": { "Name": "5 ALONSO MARTINEZ", "description": null }, "geometry": { "type": "Point", "coordinates": [ -3.695024407291076, 40.428282113788335 ] } },
{ "type": "Feature", "properties": { "Name": "5 ALUCHE", "description": null }, "geometry": { "type": "Point", "coordinates": [ -3.760809652950178, 40.38562451896221 ] } },
{ "type": "Feature", "properties": { "Name": "5 CALLAO", "description": null }, "geometry": { "type": "Point", "coordinates": [ -3.705666674745031, 40.420082489683331 ] } },
{ "type": "Feature", "properties": { "Name": "5 CAMPAMENTO", "description": null }, "geometry": { "type": "Point", "coordinates": [ -3.768135975295008, 40.39480136388358 ] } },
{ "type": "Feature", "properties": { "Name": "5 CANILLEJAS", "description": null }, "geometry": { "type": "Point", "coordinates": [ -3.608164956973511, 40.449420377671252 ] } },
{ "type": "Feature", "properties": { "Name": "5 CARABANCHEL", "description": null }, "geometry": { "type": "Point", "coordinates": [ -3.744881660438919, 40.387818323852514 ] } },
{ "type": "Feature", "properties": { "Name": "5 CASA DE CAMPO", "description": null }, "geometry": { "type": "Point", "coordinates": [ -3.761019686701832, 40.403235845635663 ] } },
{ "type": "Feature", "properties": { "Name": "5 CHUECA", "description": null }, "geometry": { "type": "Point", "coordinates": [ -3.69762156530907, 40.422924115641855 ] } },
{ "type": "Feature", "properties": { "Name": "5 CIUDAD LINEAL", "description": null }, "geometry": { "type": "Point", "coordinates": [ -3.638164089763644, 40.43804242659882 ] } },
{ "type": "Feature", "properties": { "Name": "5 DIEGO DE LEON", "description": null }, "geometry": { "type": "Point", "coordinates": [ -3.674269288886236, 40.432350982539788 ] } },
{ "type": "Feature", "properties": { "Name": "5 EL CAPRICHO", "description": null }, "geometry": { "type": "Point", "coordinates": [ -3.594013967536232, 40.453466938879373 ] } },
{ "type": "Feature", "properties": { "Name": "5 EL CARMEN", "description": null }, "geometry": { "type": "Point", "coordinates": [ -3.657582365367643, 40.431888543471025 ] } },
{ "type": "Feature", "properties": { "Name": "5 EMPALME", "description": null }, "geometry": { "type": "Point", "coordinates": [ -3.765354359064523, 40.390567532933773 ] } },
{ "type": "Feature", "properties": { "Name": "5 EUGENIA DE MONTIJO", "description": null }, "geometry": { "type": "Point", "coordinates": [ -3.751217472411813, 40.384380915779076 ] } },
{ "type": "Feature", "properties": { "Name": "5 GRAN VIA", "description": null }, "geometry": { "type": "Point", "coordinates": [ -3.701811083002293, 40.419979831979148 ] } },
{ "type": "Feature", "properties": { "Name": "5 LA LATINA", "description": null }, "geometry": { "type": "Point", "coordinates": [ -3.708167578304738, 40.411274372275102 ] } },
{ "type": "Feature", "properties": { "Name": "5 MARQUES DE VADILLO", "description": null }, "geometry": { "type": "Point", "coordinates": [ -3.715963813197224, 40.397352408630368 ] } },
{ "type": "Feature", "properties": { "Name": "5 NUÑEZ DE BALBOA", "description": null }, "geometry": { "type": "Point", "coordinates": [ -3.682585355283697, 40.432779658827918 ] } },
{ "type": "Feature", "properties": { "Name": "5 OPERA", "description": null }, "geometry": { "type": "Point", "coordinates": [ -3.709358788148992, 40.418086916273978 ] } },
{ "type": "Feature", "properties": { "Name": "5 OPORTO", "description": null }, "geometry": { "type": "Point", "coordinates": [ -3.731327675889255, 40.388463403081062 ] } },
{ "type": "Feature", "properties": { "Name": "5 PIRAMIDES", "description": null }, "geometry": { "type": "Point", "coordinates": [ -3.711388073763649, 40.402596899905262 ] } },
{ "type": "Feature", "properties": { "Name": "5 PUEBLO NUEVO", "description": null }, "geometry": { "type": "Point", "coordinates": [ -3.642834403605827, 40.435692221220783 ] } },
{ "type": "Feature", "properties": { "Name": "5 PUERTA DE TOLEDO", "description": null }, "geometry": { "type": "Point", "coordinates": [ -3.711057633812725, 40.407031389297423 ] } },
{ "type": "Feature", "properties": { "Name": "5 QUINTANA", "description": null }, "geometry": { "type": "Point", "coordinates": [ -3.647365166136872, 40.43357684329915 ] } },
{ "type": "Feature", "properties": { "Name": "5 RUBEN DARIO", "description": null }, "geometry": { "type": "Point", "coordinates": [ -3.689545126364683, 40.433152771142865 ] } },
{ "type": "Feature", "properties": { "Name": "5 SUANZES", "description": null }, "geometry": { "type": "Point", "coordinates": [ -3.626847447076172, 40.440843088706991 ] } },
{ "type": "Feature", "properties": { "Name": "5 TORRE ARIAS", "description": null }, "geometry": { "type": "Point", "coordinates": [ -3.617004729918314, 40.443742894291191 ] } },
{ "type": "Feature", "properties": { "Name": "5 URGEL", "description": null }, "geometry": { "type": "Point", "coordinates": [ -3.723615630429613, 40.393349794539652 ] } },
{ "type": "Feature", "properties": { "Name": "5 VENTAS", "description": null }, "geometry": { "type": "Point", "coordinates": [ -3.663608745921437, 40.430881132487954 ] } },
{ "type": "Feature", "properties": { "Name": "5 VISTA ALEGRE", "description": null }, "geometry": { "type": "Point", "coordinates": [ -3.739826645117881, 40.388841774504186 ] } },
{ "type": "Feature", "properties": { "Name": "6 ALTO DE EXTREMADURA", "description": null }, "geometry": { "type": "Point", "coordinates": [ -3.738937772474832, 40.409919644659418 ] } },
{ "type": "Feature", "properties": { "Name": "6 ARGANZUELA-PLANETARIO", "description": null }, "geometry": { "type": "Point", "coordinates": [ -3.688641465063927, 40.393094900029112 ] } },
{ "type": "Feature", "properties": { "Name": "6 ARGÜELLES", "description": null }, "geometry": { "type": "Point", "coordinates": [ -3.715961810099956, 40.430523717315026 ] } },
{ "type": "Feature", "properties": { "Name": "6 AVENIDA DE AMERICA", "description": null }, "geometry": { "type": "Point", "coordinates": [ -3.67658984422362, 40.43803112692008 ] } },
{ "type": "Feature", "properties": { "Name": "6 CARPETANA", "description": null }, "geometry": { "type": "Point", "coordinates": [ -3.74100000338481, 40.392699152623656 ] } },
{ "type": "Feature", "properties": { "Name": "6 CIUDAD UNIVERSITARIA", "description": null }, "geometry": { "type": "Point", "coordinates": [ -3.726795069432717, 40.443555210685282 ] } },
{ "type": "Feature", "properties": { "Name": "6 CONDE DE CASAL", "description": null }, "geometry": { "type": "Point", "coordinates": [ -3.670409622513099, 40.406967913556578 ] } },
{ "type": "Feature", "properties": { "Name": "6 CUATRO CAMINOS", "description": null }, "geometry": { "type": "Point", "coordinates": [ -3.703872353288706, 40.446967324242792 ] } },
{ "type": "Feature", "properties": { "Name": "6 DIEGO DE LEON", "description": null }, "geometry": { "type": "Point", "coordinates": [ -3.672942968338926, 40.432944297385873 ] } },
{ "type": "Feature", "properties": { "Name": "6 GUZMAN EL BUENO", "description": null }, "geometry": { "type": "Point", "coordinates": [ -3.712297357886011, 40.446357159624078 ] } },
{ "type": "Feature", "properties": { "Name": "6 LAGUNA", "description": null }, "geometry": { "type": "Point", "coordinates": [ -3.744300361169432, 40.399227543473721 ] } },
{ "type": "Feature", "properties": { "Name": "6 LEGAZPI", "description": null }, "geometry": { "type": "Point", "coordinates": [ -3.69505495341274, 40.391155610256092 ] } },
{ "type": "Feature", "properties": { "Name": "6 LUCERO", "description": null }, "geometry": { "type": "Point", "coordinates": [ -3.745343133463092, 40.405094727976412 ] } },
{ "type": "Feature", "properties": { "Name": "6 MANUEL BECERRA", "description": null }, "geometry": { "type": "Point", "coordinates": [ -3.669214574602292, 40.427902864222176 ] } },
{ "type": "Feature", "properties": { "Name": "6 MENDEZ ALVARO", "description": null }, "geometry": { "type": "Point", "coordinates": [ -3.678142246415286, 40.395373186053249 ] } },
{ "type": "Feature", "properties": { "Name": "6 METROPOLITANO", "description": null }, "geometry": { "type": "Point", "coordinates": [ -3.719432369777448, 40.446430091202984 ] } },
{ "type": "Feature", "properties": { "Name": "6 MONCLOA", "description": null }, "geometry": { "type": "Point", "coordinates": [ -3.719451598373438, 40.434961513630626 ] } },
{ "type": "Feature", "properties": { "Name": "6 NUEVOS MINISTERIOS", "description": null }, "geometry": { "type": "Point", "coordinates": [ -3.692418456066998, 40.446613076687676 ] } },
{ "type": "Feature", "properties": { "Name": "6 O'DONNELL", "description": null }, "geometry": { "type": "Point", "coordinates": [ -3.668599051321695, 40.422888390377096 ] } },
{ "type": "Feature", "properties": { "Name": "6 OPAÑEL", "description": null }, "geometry": { "type": "Point", "coordinates": [ -3.723134262030649, 40.386902306564245 ] } },
{ "type": "Feature", "properties": { "Name": "6 OPORTO", "description": null }, "geometry": { "type": "Point", "coordinates": [ -3.731268769862201, 40.388463775617552 ] } },
{ "type": "Feature", "properties": { "Name": "6 PACIFICO", "description": null }, "geometry": { "type": "Point", "coordinates": [ -3.673860948285712, 40.402064934244095 ] } },
{ "type": "Feature", "properties": { "Name": "6 PLAZA ELIPTICA", "description": null }, "geometry": { "type": "Point", "coordinates": [ -3.718373525663814, 40.384598627075214 ] } },
{ "type": "Feature", "properties": { "Name": "6 PRINCIPE PIO", "description": null }, "geometry": { "type": "Point", "coordinates": [ -3.720329050360675, 40.421064140817386 ] } },
{ "type": "Feature", "properties": { "Name": "6 PUERTA DEL ANGEL", "description": null }, "geometry": { "type": "Point", "coordinates": [ -3.727241955574144, 40.413894717383116 ] } },
{ "type": "Feature", "properties": { "Name": "6 REPUBLICA ARGENTINA", "description": null }, "geometry": { "type": "Point", "coordinates": [ -3.684064545714559, 40.443788941460433 ] } },
{ "type": "Feature", "properties": { "Name": "6 SAINZ DE BARANDA", "description": null }, "geometry": { "type": "Point", "coordinates": [ -3.669523455578141, 40.415063185819491 ] } },
{ "type": "Feature", "properties": { "Name": "6 USERA", "description": null }, "geometry": { "type": "Point", "coordinates": [ -3.706901007285182, 40.387092773982452 ] } },
{ "type": "Feature", "properties": { "Name": "7A ALONSO CANO", "description": null }, "geometry": { "type": "Point", "coordinates": [ -3.699255078803118, 40.438373729875011 ] } },
{ "type": "Feature", "properties": { "Name": "7A ANTONIO MACHADO", "description": null }, "geometry": { "type": "Point", "coordinates": [ -3.717704365522506, 40.470215515431512 ] } },
{ "type": "Feature", "properties": { "Name": "7A ASCAO", "description": null }, "geometry": { "type": "Point", "coordinates": [ -3.641060838278901, 40.430197548595501 ] } },
{ "type": "Feature", "properties": { "Name": "7A AVDA. DE LA ILUSTRACION", "description": null }, "geometry": { "type": "Point", "coordinates": [ -3.718411259111162, 40.480093939798543 ] } },
{ "type": "Feature", "properties": { "Name": "7A AVENIDA DE AMERICA", "description": null }, "geometry": { "type": "Point", "coordinates": [ -3.676530894264689, 40.438031471920858 ] } },
{ "type": "Feature", "properties": { "Name": "7A BARRIO DE LA CONCEPCION", "description": null }, "geometry": { "type": "Point", "coordinates": [ -3.652004710876878, 40.439091322131397 ] } },
{ "type": "Feature", "properties": { "Name": "7A CANAL", "description": null }, "geometry": { "type": "Point", "coordinates": [ -3.70489445530308, 40.438699841306061 ] } },
{ "type": "Feature", "properties": { "Name": "7A CARTAGENA", "description": null }, "geometry": { "type": "Point", "coordinates": [ -3.672157754508404, 40.439336262197237 ] } },
{ "type": "Feature", "properties": { "Name": "7A ESTADIO OLIMPICO", "description": null }, "geometry": { "type": "Point", "coordinates": [ -3.60015664600572, 40.433390115428594 ] } },
{ "type": "Feature", "properties": { "Name": "7A FRANCOS RODRIGUEZ", "description": null }, "geometry": { "type": "Point", "coordinates": [ -3.712392392186851, 40.456473665760839 ] } },
{ "type": "Feature", "properties": { "Name": "7A GARCIA NOBLEJAS", "description": null }, "geometry": { "type": "Point", "coordinates": [ -3.633310367151742, 40.428420438952301 ] } },
{ "type": "Feature", "properties": { "Name": "7A GREGORIO MARAÑON", "description": null }, "geometry": { "type": "Point", "coordinates": [ -3.691495499049738, 40.438249234181846 ] } },
{ "type": "Feature", "properties": { "Name": "7A GUZMAN EL BUENO", "description": null }, "geometry": { "type": "Point", "coordinates": [ -3.712296977475499, 40.446321125991012 ] } },
{ "type": "Feature", "properties": { "Name": "7A ISLAS FILIPINAS", "description": null }, "geometry": { "type": "Point", "coordinates": [ -3.71374135431468, 40.439059972338271 ] } },
{ "type": "Feature", "properties": { "Name": "7A LACOMA", "description": null }, "geometry": { "type": "Point", "coordinates": [ -3.723053448492279, 40.485010896488546 ] } },
{ "type": "Feature", "properties": { "Name": "7A LAS MUSAS", "description": null }, "geometry": { "type": "Point", "coordinates": [ -3.607887130055742, 40.432980354557621 ] } },
{ "type": "Feature", "properties": { "Name": "7A PARQUE DE LAS AVENIDAS", "description": null }, "geometry": { "type": "Point", "coordinates": [ -3.662973683741615, 40.439443351234402 ] } },
{ "type": "Feature", "properties": { "Name": "7A PEÑAGRANDE", "description": null }, "geometry": { "type": "Point", "coordinates": [ -3.715830357925139, 40.475920794508795 ] } },
{ "type": "Feature", "properties": { "Name": "7A PITIS", "description": null }, "geometry": { "type": "Point", "coordinates": [ -3.725899506791474, 40.495101067059359 ] } },
{ "type": "Feature", "properties": { "Name": "7A PUEBLO NUEVO", "description": null }, "geometry": { "type": "Point", "coordinates": [ -3.642834060420373, 40.435656187003218 ] } },
{ "type": "Feature", "properties": { "Name": "7A SAN BLAS", "description": null }, "geometry": { "type": "Point", "coordinates": [ -3.615469606282412, 40.427985259797985 ] } },
{ "type": "Feature", "properties": { "Name": "7A SIMANCAS", "description": null }, "geometry": { "type": "Point", "coordinates": [ -3.625725983210804, 40.42798425779678 ] } },
{ "type": "Feature", "properties": { "Name": "7A VALDEZARZA", "description": null }, "geometry": { "type": "Point", "coordinates": [ -3.71598379538069, 40.464820810147138 ] } },
{ "type": "Feature", "properties": { "Name": "7B BARRIO DEL PUERTO", "description": null }, "geometry": { "type": "Point", "coordinates": [ -3.569198792073217, 40.422492562520638 ] } },
{ "type": "Feature", "properties": { "Name": "7B COSLADA CENTRAL", "description": null }, "geometry": { "type": "Point", "coordinates": [ -3.561193228398721, 40.423729905298636 ] } },
{ "type": "Feature", "properties": { "Name": "7B ESTADIO OLIMPICO", "description": null }, "geometry": { "type": "Point", "coordinates": [ -3.60015664600572, 40.433390115428594 ] } },
{ "type": "Feature", "properties": { "Name": "7B HENARES", "description": null }, "geometry": { "type": "Point", "coordinates": [ -3.527184756033829, 40.417763803769269 ] } },
{ "type": "Feature", "properties": { "Name": "7B HOSPITAL DEL HENARES", "description": null }, "geometry": { "type": "Point", "coordinates": [ -3.534538700364056, 40.417603910865651 ] } },
{ "type": "Feature", "properties": { "Name": "7B JARAMA", "description": null }, "geometry": { "type": "Point", "coordinates": [ -3.525504191899041, 40.422951678568836 ] } },
{ "type": "Feature", "properties": { "Name": "7B LA RAMBLA", "description": null }, "geometry": { "type": "Point", "coordinates": [ -3.547931164124251, 40.425144880064252 ] } },
{ "type": "Feature", "properties": { "Name": "7B SAN FERNANDO", "description": null }, "geometry": { "type": "Point", "coordinates": [ -3.535417765096221, 40.424410709434717 ] } },
{ "type": "Feature", "properties": { "Name": "8 AEROPUERTO T1 T2 T3", "description": null }, "geometry": { "type": "Point", "coordinates": [ -3.569541067530847, 40.468644167154046 ] } },
{ "type": "Feature", "properties": { "Name": "8 AEROPUERTO T4", "description": null }, "geometry": { "type": "Point", "coordinates": [ -3.593254085368614, 40.491759039636122 ] } },
{ "type": "Feature", "properties": { "Name": "8 BARAJAS", "description": null }, "geometry": { "type": "Point", "coordinates": [ -3.582531126058038, 40.475768604419436 ] } },
{ "type": "Feature", "properties": { "Name": "8 CAMPO DE LAS NACIONES", "description": null }, "geometry": { "type": "Point", "coordinates": [ -3.616210052023947, 40.463891281275409 ] } },
{ "type": "Feature", "properties": { "Name": "8 COLOMBIA", "description": null }, "geometry": { "type": "Point", "coordinates": [ -3.676832402038624, 40.456336002823406 ] } },
{ "type": "Feature", "properties": { "Name": "8 MAR DE CRISTAL", "description": null }, "geometry": { "type": "Point", "coordinates": [ -3.638330913349365, 40.469383833583841 ] } },
{ "type": "Feature", "properties": { "Name": "8 NUEVOS MINISTERIOS", "description": null }, "geometry": { "type": "Point", "coordinates": [ -3.692417808921252, 40.446550017563638 ] } },
{ "type": "Feature", "properties": { "Name": "8 PINAR DEL REY", "description": null }, "geometry": { "type": "Point", "coordinates": [ -3.648674574750905, 40.467992917343715 ] } },
{ "type": "Feature", "properties": { "Name": "9A ARTILLEROS", "description": null }, "geometry": { "type": "Point", "coordinates": [ -3.641813746285357, 40.405220258281091 ] } },
{ "type": "Feature", "properties": { "Name": "9A AVENIDA DE AMERICA", "description": null }, "geometry": { "type": "Point", "coordinates": [ -3.676471944304738, 40.438031816891581 ] } },
{ "type": "Feature", "properties": { "Name": "9A BARRIO DEL PILAR", "description": null }, "geometry": { "type": "Point", "coordinates": [ -3.703170082953557, 40.476881388994343 ] } },
{ "type": "Feature", "properties": { "Name": "9A COLOMBIA", "description": null }, "geometry": { "type": "Point", "coordinates": [ -3.676950114051617, 40.457488464080761 ] } },
{ "type": "Feature", "properties": { "Name": "9A CONCHA ESPINA", "description": null }, "geometry": { "type": "Point", "coordinates": [ -3.677384730079551, 40.451440884039954 ] } },
{ "type": "Feature", "properties": { "Name": "9A CRUZ DEL RAYO", "description": null }, "geometry": { "type": "Point", "coordinates": [ -3.678220651650197, 40.444264816623033 ] } },
{ "type": "Feature", "properties": { "Name": "9A DUQUE DE PASTRANA", "description": null }, "geometry": { "type": "Point", "coordinates": [ -3.679175080845444, 40.467619523151981 ] } },
{ "type": "Feature", "properties": { "Name": "9A ESTRELLA", "description": null }, "geometry": { "type": "Point", "coordinates": [ -3.661791533001122, 40.41146804102253 ] } },
{ "type": "Feature", "properties": { "Name": "9A HERRERA ORIA", "description": null }, "geometry": { "type": "Point", "coordinates": [ -3.707522393839049, 40.484656572327964 ] } },
{ "type": "Feature", "properties": { "Name": "9A IBIZA", "description": null }, "geometry": { "type": "Point", "coordinates": [ -3.67858545827223, 40.418388748041792 ] } },
{ "type": "Feature", "properties": { "Name": "9A MIRASIERRA", "description": null }, "geometry": { "type": "Point", "coordinates": [ -3.71635730886455, 40.491088577548204 ] } },
{ "type": "Feature", "properties": { "Name": "9A NUÑEZ DE BALBOA", "description": null }, "geometry": { "type": "Point", "coordinates": [ -3.679375381189777, 40.430122886080873 ] } },
{ "type": "Feature", "properties": { "Name": "9A PACO DE LUCIA", "description": null }, "geometry": { "type": "Point", "coordinates": [ -3.709084232835683, 40.499646860142015 ] } },
{ "type": "Feature", "properties": { "Name": "9A PAVONES", "description": null }, "geometry": { "type": "Point", "coordinates": [ -3.635122746009376, 40.400509417908438 ] } },
{ "type": "Feature", "properties": { "Name": "9A PIO XII", "description": null }, "geometry": { "type": "Point", "coordinates": [ -3.675802343419992, 40.462999669438517 ] } },
{ "type": "Feature", "properties": { "Name": "9A PLAZA DE CASTILLA", "description": null }, "geometry": { "type": "Point", "coordinates": [ -3.689135160636755, 40.466893904771361 ] } },
{ "type": "Feature", "properties": { "Name": "9A PRINCIPE DE VERGARA", "description": null }, "geometry": { "type": "Point", "coordinates": [ -3.6802467751336, 40.424171799785853 ] } },
{ "type": "Feature", "properties": { "Name": "9A PUERTA DE ARGANDA", "description": null }, "geometry": { "type": "Point", "coordinates": [ -3.595982858510145, 40.40131238195054 ] } },
{ "type": "Feature", "properties": { "Name": "9A SAINZ DE BARANDA", "description": null }, "geometry": { "type": "Point", "coordinates": [ -3.669523098405203, 40.415027151665619 ] } },
{ "type": "Feature", "properties": { "Name": "9A SAN CIPRIANO", "description": null }, "geometry": { "type": "Point", "coordinates": [ -3.602404004973017, 40.403810662367249 ] } },
{ "type": "Feature", "properties": { "Name": "9A VALDEBERNARDO", "description": null }, "geometry": { "type": "Point", "coordinates": [ -3.621566677060544, 40.400042538743349 ] } },
{ "type": "Feature", "properties": { "Name": "9A VENTILLA", "description": null }, "geometry": { "type": "Point", "coordinates": [ -3.695884900062436, 40.469430028848628 ] } },
{ "type": "Feature", "properties": { "Name": "9A VICALVARO", "description": null }, "geometry": { "type": "Point", "coordinates": [ -3.608865631789395, 40.404209253506501 ] } },
{ "type": "Feature", "properties": { "Name": "9A VINATEROS", "description": null }, "geometry": { "type": "Point", "coordinates": [ -3.652739766845654, 40.410240209954978 ] } },
{ "type": "Feature", "properties": { "Name": "9B ARGANDA DEL REY", "description": null }, "geometry": { "type": "Point", "coordinates": [ -3.447526065715983, 40.303664790385078 ] } },
{ "type": "Feature", "properties": { "Name": "9B LA POVEDA", "description": null }, "geometry": { "type": "Point", "coordinates": [ -3.477452635361182, 40.319014065720239 ] } },
{ "type": "Feature", "properties": { "Name": "9B PUERTA DE ARGANDA", "description": null }, "geometry": { "type": "Point", "coordinates": [ -3.595982858510145, 40.40131238195054 ] } },
{ "type": "Feature", "properties": { "Name": "9B RIVAS FUTURA", "description": null }, "geometry": { "type": "Point", "coordinates": [ -3.524799759036857, 40.341341035027426 ] } },
{ "type": "Feature", "properties": { "Name": "9B RIVAS URBANIZACIONES", "description": null }, "geometry": { "type": "Point", "coordinates": [ -3.547281479092949, 40.366768872113788 ] } },
{ "type": "Feature", "properties": { "Name": "9B RIVAS VACIAMADRID", "description": null }, "geometry": { "type": "Point", "coordinates": [ -3.520602741130098, 40.328368707381692 ] } },
{ "type": "Feature", "properties": { "Name": "R OPERA", "description": null }, "geometry": { "type": "Point", "coordinates": [ -3.709288069581241, 40.418087350146479 ] } },
{ "type": "Feature", "properties": { "Name": "R PRINCIPE PIO", "description": null }, "geometry": { "type": "Point", "coordinates": [ -3.720328281648544, 40.420992073361319 ] } }
]
}
